$GNGGA,094220.10,3422.44196245,N,10854.00014393,E,1,12,1.0,374.012,M,-35.766,M,,*5D
$GNVTG,312.69,T,316.36,M,0.02,N,0.04,K,A*35
$GNHDT,63.719,T*11
$GNGGA,094220.20,3422.44196261,N,10854.00014407,E,1,12,1.0,374.011,M,-35.766,M,,*51
$GNVTG,314.08,T,317.75,M,0.02,N,0.04,K,A*32
$GNHDT,63.847,T*15
$GNGGA,094220.30,3422.44196276,N,10854.00014422,E,1,12,1.0,374.011,M,-35.766,M,,*51
$GNVTG,336.27,T,339.94,M,0.01,N,0.02,K,A*39
$GNHDT,63.854,T*17
$GNGGA,094220.40,3422.44196292,N,10854.00014435,E,1,12,1.0,374.010,M,-35.766,M,,*5B
$GNVTG,322.01,T,325.67,M,0.02,N,0.03,K,A*3B
$GNHDT,63.859,T*1A
$GNGGA,094220.50,3422.44196308,N,10854.00014448,E,1,12,1.0,374.010,M,-35.766,M,,*52
$GNVTG,311.14,T,314.81,M,0.02,N,0.04,K,A*32
$GNHDT,63.718,T*10
$GNGGA,094220.60,3422.44196324,N,10854.00014462,E,1,12,1.0,374.009,M,-35.766,M,,*5F
$GNVTG,313.80,T,317.46,M,0.01,N,0.02,K,A*30
$GNHDT,63.806,T*10
$GNGGA,094220.70,3422.44196340,N,10854.00014475,E,1,12,1.0,374.008,M,-35.766,M,,*5B
$GNVTG,2.60,T,6.26,M,0.00,N,0.01,K,A*3A
$GNHDT,63.847,T*15
$GNGGA,094220.80,3422.44196355,N,10854.00014489,E,1,12,1.0,374.008,M,-35.766,M,,*53
$GNVTG,77.38,T,81.05,M,0.01,N,0.02,K,A*39
$GNHDT,63.733,T*19
$GNGGA,094220.90,3422.44196370,N,10854.00014503,E,1,12,1.0,374.007,M,-35.766,M,,*59
$GNVTG,137.30,T,140.96,M,0.02,N,0.04,K,A*37
$GNHDT,63.762,T*1D
$GNGGA,094221.00,3422.44196386,N,10854.00014516,E,1,12,1.0,374.007,M,-35.766,M,,*5C
$GNVTG,117.86,T,121.52,M,0.01,N,0.03,K,A*33
$GNHDT,63.894,T*1B
$GNGGA,094221.10,3422.44196401,N,10854.00014529,E,1,12,1.0,374.006,M,-35.766,M,,*58
$GNVTG,248.79,T,252.45,M,0.01,N,0.02,K,A*3A
$GNHDT,63.681,T*11
$GNGGA,094221.20,3422.44196416,N,10854.00014541,E,1,12,1.0,374.006,M,-35.766,M,,*53
$GNVTG,247.84,T,251.50,M,0.01,N,0.02,K,A*30
$GNHDT,63.681,T*11
$GNGGA,094221.30,3422.44196431,N,10854.00014554,E,1,12,1.0,374.005,M,-35.766,M,,*50
$GNVTG,216.62,T,220.29,M,0.02,N,0.04,K,A*31
$GNHDT,63.901,T*16
$GNGGA,094221.40,3422.44196446,N,10854.00014567,E,1,12,1.0,374.004,M,-35.766,M,,*56
$GNVTG,211.55,T,215.21,M,0.02,N,0.03,K,A*3B
$GNHDT,63.736,T*1C
$GNGGA,094221.50,3422.44196462,N,10854.00014579,E,1,12,1.0,374.004,M,-35.766,M,,*5E
$GNVTG,213.50,T,217.17,M,0.01,N,0.01,K,A*3A
$GNHDT,63.686,T*16
$GNGGA,094221.60,3422.44196477,N,10854.00014592,E,1,12,1.0,374.003,M,-35.766,M,,*5B
$GNVTG,335.35,T,339.01,M,0.01,N,0.01,K,A*36
$GNHDT,63.617,T*1E
$GNGGA,094221.70,3422.44196492,N,10854.00014606,E,1,12,1.0,374.002,M,-35.766,M,,*5E
$GNVTG,104.70,T,108.36,M,0.02,N,0.04,K,A*35
$GNHDT,63.799,T*19
$GNGGA,094221.80,3422.44196508,N,10854.00014620,E,1,12,1.0,374.002,M,-35.766,M,,*57
$GNVTG,91.74,T,95.40,M,0.03,N,0.05,K,A*38
$GNHDT,63.703,T*1A
$GNGGA,094221.90,3422.44196523,N,10854.00014635,E,1,12,1.0,374.001,M,-35.766,M,,*58
$GNVTG,87.79,T,91.46,M,0.03,N,0.06,K,A*33
$GNHDT,63.800,T*16
$GNGGA,094222.00,3422.44196538,N,10854.00014649,E,1,12,1.0,374.001,M,-35.766,M,,*53
$GNVTG,88.40,T,92.06,M,0.03,N,0.06,K,A*31
$GNHDT,63.728,T*13
$GNGGA,094222.10,3422.44196553,N,10854.00014663,E,1,12,1.0,374.000,M,-35.766,M,,*56
$GNVTG,75.91,T,79.57,M,0.02,N,0.03,K,A*3A
$GNHDT,63.640,T*1C
$GNGGA,094222.20,3422.44196562,N,10854.00014673,E,1,12,1.1,374.000,M,-35.766,M,,*57
$GNVTG,55.13,T,58.79,M,0.01,N,0.03,K,A*3E
$GNHDT,63.779,T*17
$GNGGA,094222.30,3422.44196572,N,10854.00014683,E,1,12,1.1,373.999,M,-35.766,M,,*56
$GNVTG,38.34,T,42.00,M,0.02,N,0.04,K,A*31
$GNHDT,63.898,T*17
$GNGGA,094222.40,3422.44196581,N,10854.00014693,E,1,12,1.1,373.999,M,-35.766,M,,*5C
$GNVTG,37.75,T,41.41,M,0.02,N,0.03,K,A*3A
$GNHDT,63.635,T*1E
$GNGGA,094222.50,3422.44196590,N,10854.00014704,E,1,12,1.1,373.998,M,-35.766,M,,*53
$GNVTG,41.50,T,45.16,M,0.02,N,0.04,K,A*3D
$GNHDT,63.727,T*1C
$GNGGA,094222.60,3422.44196606,N,10854.00014720,E,1,12,1.0,373.998,M,-35.766,M,,*5B
$GNVTG,43.57,T,47.23,M,0.02,N,0.03,K,A*3B
$GNHDT,63.880,T*1E
$GNGGA,094222.70,3422.44196622,N,10854.00014735,E,1,12,1.0,373.997,M,-35.766,M,,*57
$GNVTG,17.85,T,21.51,M,0.04,N,0.08,K,A*3D
$GNHDT,63.671,T*1E
$GNGGA,094222.80,3422.44196632,N,10854.00014746,E,1,12,1.1,373.996,M,-35.766,M,,*5D
$GNVTG,21.60,T,25.26,M,0.04,N,0.07,K,A*38
$GNHDT,63.635,T*1E
$GNGGA,094222.90,3422.44196641,N,10854.00014757,E,1,12,1.1,373.996,M,-35.766,M,,*58
$GNVTG,85.20,T,88.86,M,0.04,N,0.07,K,A*3F
$GNHDT,63.787,T*16
$GNGGA,094223.00,3422.44196656,N,10854.00014774,E,1,12,1.0,373.995,M,-35.766,M,,*55
$GNVTG,82.52,T,86.18,M,0.04,N,0.07,K,A*34
$GNHDT,63.679,T*16
$GNGGA,094223.10,3422.44196671,N,10854.00014790,E,1,12,1.0,373.995,M,-35.766,M,,*5B
$GNVTG,50.64,T,54.30,M,0.02,N,0.04,K,A*3E
$GNHDT,63.843,T*11
$GNGGA,094223.20,3422.44196685,N,10854.00014806,E,1,12,1.0,373.994,M,-35.766,M,,*52
$GNVTG,54.37,T,58.04,M,0.01,N,0.02,K,A*32
$GNHDT,63.877,T*16
$GNGGA,094223.30,3422.44196699,N,10854.00014821,E,1,12,1.0,373.994,M,-35.766,M,,*5B
$GNVTG,242.21,T,245.87,M,0.01,N,0.01,K,A*36
$GNHDT,63.942,T*11
$GNGGA,094223.40,3422.44196713,N,10854.00014836,E,1,12,1.0,373.993,M,-35.766,M,,*5E
$GNVTG,257.97,T,261.64,M,0.01,N,0.01,K,A*34
$GNHDT,63.902,T*15
$GNGGA,094223.50,3422.44196727,N,10854.00014850,E,1,12,1.0,373.993,M,-35.766,M,,*58
$GNVTG,307.77,T,311.43,M,0.02,N,0.04,K,A*3B
$GNHDT,63.780,T*11
$GNGGA,094223.60,3422.44196742,N,10854.00014865,E,1,12,1.0,373.992,M,-35.766,M,,*5F
$GNVTG,337.14,T,340.80,M,0.02,N,0.03,K,A*31
$GNHDT,63.796,T*16
$GNGGA,094223.70,3422.44196756,N,10854.00014879,E,1,12,1.0,373.992,M,-35.766,M,,*56
$GNVTG,317.02,T,320.68,M,0.02,N,0.03,K,A*34
$GNHDT,63.785,T*14
$GNGGA,094223.80,3422.44196770,N,10854.00014893,E,1,12,1.0,373.991,M,-35.766,M,,*5A
$GNVTG,314.25,T,317.92,M,0.01,N,0.02,K,A*31
$GNHDT,63.888,T*16
$GNGGA,094223.90,3422.44196784,N,10854.00014907,E,1,12,1.0,373.991,M,-35.766,M,,*5C
$GNVTG,309.49,T,313.15,M,0.01,N,0.02,K,A*3C
$GNHDT,63.924,T*11
$GNGGA,094224.00,3422.44196797,N,10854.00014921,E,1,12,1.0,373.990,M,-35.766,M,,*55
$GNVTG,304.82,T,308.49,M,0.01,N,0.02,K,A*35
$GNHDT,63.793,T*13
$GNGGA,094224.10,3422.44196811,N,10854.00014934,E,1,12,1.0,373.990,M,-35.766,M,,*51
$GNVTG,354.31,T,357.97,M,0.02,N,0.04,K,A*34
$GNHDT,63.786,T*17
$GNGGA,094224.20,3422.44196826,N,10854.00014948,E,1,12,1.0,373.989,M,-35.766,M,,*55
$GNVTG,2.59,T,6.25,M,0.02,N,0.03,K,A*33
$GNHDT,63.832,T*17
$GNGGA,094224.30,3422.44196840,N,10854.00014961,E,1,12,1.0,373.989,M,-35.766,M,,*5F
$GNVTG,14.99,T,18.66,M,0.01,N,0.02,K,A*32
$GNHDT,63.892,T*1D
$GNGGA,094224.40,3422.44196854,N,10854.00014974,E,1,12,1.0,373.988,M,-35.766,M,,*58
$GNVTG,44.30,T,47.96,M,0.01,N,0.02,K,A*31
$GNHDT,63.757,T*1B
$GNGGA,094224.50,3422.44196868,N,10854.00014987,E,1,12,1.0,373.988,M,-35.766,M,,*5A
$GNVTG,269.71,T,273.37,M,0.00,N,0.01,K,A*35
$GNHDT,63.862,T*12
$GNGGA,094224.60,3422.44196883,N,10854.00015001,E,1,12,1.0,373.987,M,-35.766,M,,*55
$GNVTG,132.10,T,135.76,M,0.00,N,0.01,K,A*3B
$GNHDT,63.858,T*1B
$GNGGA,094224.70,3422.44196898,N,10854.00015015,E,1,12,1.0,373.987,M,-35.766,M,,*5B
$GNVTG,41.05,T,44.71,M,0.02,N,0.04,K,A*3D
$GNHDT,63.898,T*17
$GNGGA,094224.80,3422.44196907,N,10854.00015025,E,1,12,1.1,373.987,M,-35.766,M,,*51
$GNVTG,49.43,T,53.10,M,0.02,N,0.04,K,A*36
$GNHDT,63.869,T*19
$GNGGA,094224.90,3422.44196917,N,10854.00015035,E,1,12,1.1,373.986,M,-35.766,M,,*51
$GNVTG,17.33,T,20.99,M,0.02,N,0.04,K,A*3F
$GNHDT,63.741,T*1C
$GNGGA,094225.00,3422.44196927,N,10854.00015044,E,1,12,1.1,373.986,M,-35.766,M,,*5C
$GNVTG,7.71,T,11.37,M,0.02,N,0.05,K,A*0F
$GNHDT,63.868,T*18
$GNGGA,094225.10,3422.44196937,N,10854.00015054,E,1,12,1.1,373.986,M,-35.766,M,,*5D
$GNVTG,336.80,T,340.46,M,0.03,N,0.05,K,A*30
$GNHDT,63.810,T*17
$GNGGA,094225.20,3422.44196946,N,10854.00015063,E,1,12,1.1,373.985,M,-35.766,M,,*5F
$GNVTG,347.22,T,350.89,M,0.02,N,0.04,K,A*3C
$GNHDT,63.688,T*18
$GNGGA,094225.30,3422.44196956,N,10854.00015073,E,1,12,1.1,373.985,M,-35.766,M,,*5E
$GNVTG,111.97,T,115.63,M,0.02,N,0.04,K,A*34
$GNHDT,63.978,T*18
$GNGGA,094225.40,3422.44196965,N,10854.00015083,E,1,12,1.1,373.985,M,-35.766,M,,*56
$GNVTG,122.47,T,126.13,M,0.03,N,0.05,K,A*3E
$GNHDT,63.756,T*1A
$GNGGA,094225.50,3422.44196974,N,10854.00015093,E,1,12,1.1,373.984,M,-35.766,M,,*57
$GNVTG,129.95,T,133.62,M,0.02,N,0.04,K,A*38
$GNHDT,63.812,T*15
$GNGGA,094225.60,3422.44196988,N,10854.00015108,E,1,12,1.0,373.984,M,-35.766,M,,*55
$GNVTG,112.86,T,116.52,M,0.02,N,0.03,K,A*31
$GNHDT,63.981,T*1E
$GNGGA,094225.70,3422.44197002,N,10854.00015122,E,1,12,1.0,373.983,M,-35.766,M,,*51
$GNVTG,143.69,T,147.35,M,0.01,N,0.01,K,A*30
$GNHDT,63.855,T*16
$GNGGA,094225.80,3422.44197016,N,10854.00015137,E,1,12,1.0,373.983,M,-35.766,M,,*5F
$GNVTG,107.35,T,111.01,M,0.00,N,0.00,K,A*3D
$GNHDT,63.922,T*17
$GNGGA,094225.90,3422.44197029,N,10854.00015151,E,1,12,1.0,373.982,M,-35.766,M,,*53
$GNVTG,165.81,T,169.48,M,0.01,N,0.02,K,A*37
$GNHDT,64.069,T*16
$GNGGA,094226.00,3422.44197043,N,10854.00015166,E,1,12,1.0,373.982,M,-35.766,M,,*51
$GNVTG,193.34,T,197.00,M,0.01,N,0.02,K,A*3D
$GNHDT,63.855,T*16
$GNGGA,094226.10,3422.44197056,N,10854.00015180,E,1,12,1.0,373.981,M,-35.766,M,,*5F
$GNVTG,162.60,T,166.27,M,0.02,N,0.03,K,A*3B
$GNHDT,63.851,T*12
$GNGGA,094226.20,3422.44197064,N,10854.00015190,E,1,12,1.1,373.981,M,-35.766,M,,*5D
$GNVTG,119.35,T,123.02,M,0.01,N,0.02,K,A*33
$GNHDT,63.811,T*16
$GNGGA,094226.30,3422.44197072,N,10854.00015201,E,1,12,1.1,373.981,M,-35.766,M,,*50
$GNVTG,89.48,T,93.15,M,0.02,N,0.04,K,A*38
$GNHDT,63.790,T*10
$GNGGA,094226.40,3422.44197086,N,10854.00015216,E,1,12,1.0,373.980,M,-35.766,M,,*5A
$GNVTG,77.93,T,81.59,M,0.02,N,0.04,K,A*34
$GNHDT,63.864,T*14
$GNGGA,094226.50,3422.44197099,N,10854.00015232,E,1,12,1.0,373.979,M,-35.766,M,,*55
$GNVTG,71.43,T,75.09,M,0.02,N,0.04,K,A*31
$GNHDT,63.745,T*18
$GNGGA,094226.60,3422.44197112,N,10854.00015247,E,1,12,1.0,373.979,M,-35.766,M,,*56
$GNVTG,76.81,T,80.47,M,0.02,N,0.04,K,A*38
$GNHDT,63.881,T*1F
$GNGGA,094226.70,3422.44197125,N,10854.00015262,E,1,12,1.0,373.978,M,-35.766,M,,*55
$GNVTG,75.83,T,79.50,M,0.03,N,0.05,K,A*39
$GNHDT,63.846,T*14
$GNGGA,094226.80,3422.44197133,N,10854.00015273,E,1,12,1.1,373.978,M,-35.766,M,,*5C
$GNVTG,71.36,T,75.02,M,0.02,N,0.05,K,A*39
$GNHDT,63.861,T*11
$GNGGA,094226.90,3422.44197141,N,10854.00015284,E,1,12,1.1,373.978,M,-35.766,M,,*50
$GNVTG,61.90,T,65.56,M,0.03,N,0.05,K,A*35
$GNHDT,63.797,T*17
$GNGGA,094227.00,3422.44197154,N,10854.00015300,E,1,12,1.0,373.977,M,-35.766,M,,*5F
$GNVTG,54.17,T,57.84,M,0.02,N,0.04,K,A*32
$GNHDT,63.776,T*18
$GNGGA,094227.10,3422.44197167,N,10854.00015316,E,1,12,1.0,373.977,M,-35.766,M,,*59
$GNVTG,98.43,T,102.09,M,0.04,N,0.07,K,A*02
$GNHDT,63.843,T*11
$GNGGA,094227.20,3422.44197175,N,10854.00015328,E,1,12,1.1,373.976,M,-35.766,M,,*54
$GNVTG,95.24,T,98.90,M,0.03,N,0.06,K,A*3A
$GNHDT,63.939,T*1D
$GNGGA,094227.30,3422.44197182,N,10854.00015340,E,1,12,1.1,373.976,M,-35.766,M,,*53
$GNVTG,98.01,T,101.67,M,0.04,N,0.07,K,A*0F
$GNHDT,63.926,T*13
$GNGGA,094227.40,3422.44197190,N,10854.00015352,E,1,12,1.1,373.976,M,-35.766,M,,*54
$GNVTG,103.49,T,107.15,M,0.03,N,0.05,K,A*36
$GNHDT,63.910,T*16
$GNGGA,094227.50,3422.44197197,N,10854.00015363,E,1,12,1.1,373.975,M,-35.766,M,,*53
$GNVTG,226.70,T,230.36,M,0.01,N,0.03,K,A*3A
$GNHDT,63.967,T*16
$GNGGA,094227.60,3422.44197209,N,10854.00015378,E,1,12,1.0,373.975,M,-35.766,M,,*5F
$GNVTG,247.31,T,250.97,M,0.01,N,0.02,K,A*34
$GNHDT,63.810,T*17
$GNGGA,094227.70,3422.44197222,N,10854.00015394,E,1,12,1.0,373.974,M,-35.766,M,,*54
$GNVTG,51.21,T,54.87,M,0.01,N,0.01,K,A*34
$GNHDT,63.878,T*19
$GNGGA,094227.80,3422.44197234,N,10854.00015410,E,1,12,1.0,373.974,M,-35.766,M,,*57
$GNVTG,20.80,T,24.47,M,0.01,N,0.03,K,A*30
$GNHDT,63.953,T*11
$GNGGA,094227.90,3422.44197246,N,10854.00015427,E,1,12,1.0,373.973,M,-35.766,M,,*50
$GNVTG,66.17,T,69.83,M,0.03,N,0.05,K,A*39
$GNHDT,63.871,T*10
$GNGGA,094228.00,3422.44197259,N,10854.00015443,E,1,12,1.0,373.973,M,-35.766,M,,*5A
$GNVTG,70.79,T,74.46,M,0.02,N,0.04,K,A*33
$GNHDT,63.966,T*17
$GNGGA,094228.10,3422.44197271,N,10854.00015460,E,1,12,1.0,373.973,M,-35.766,M,,*50
$GNVTG,61.45,T,65.12,M,0.03,N,0.05,K,A*3D
$GNHDT,64.021,T*1A
$GNGGA,094228.20,3422.44197283,N,10854.00015476,E,1,12,1.0,373.972,M,-35.766,M,,*58
$GNVTG,69.13,T,72.80,M,0.02,N,0.05,K,A*3A
$GNHDT,64.007,T*1E
$GNGGA,094228.30,3422.44197295,N,10854.00015493,E,1,12,1.0,373.972,M,-35.766,M,,*55
$GNVTG,65.19,T,68.86,M,0.04,N,0.08,K,A*3A
$GNHDT,63.820,T*14
$GNGGA,094228.40,3422.44197308,N,10854.00015510,E,1,12,1.0,373.971,M,-35.766,M,,*5E
$GNVTG,64.60,T,68.27,M,0.04,N,0.08,K,A*3E
$GNHDT,63.994,T*1A
$GNGGA,094228.50,3422.44197321,N,10854.00015527,E,1,12,1.0,373.971,M,-35.766,M,,*50
$GNVTG,56.83,T,60.49,M,0.04,N,0.07,K,A*3D
$GNHDT,64.046,T*1B
$GNGGA,094228.60,3422.44197333,N,10854.00015544,E,1,12,1.0,373.970,M,-35.766,M,,*54
$GNVTG,60.20,T,63.86,M,0.03,N,0.05,K,A*34
$GNHDT,64.108,T*10
$GNGGA,094228.70,3422.44197345,N,10854.00015561,E,1,12,1.0,373.970,M,-35.766,M,,*53
$GNVTG,86.23,T,89.90,M,0.02,N,0.03,K,A*3B
$GNHDT,63.934,T*10
$GNGGA,094228.80,3422.44197353,N,10854.00015572,E,1,12,1.1,373.970,M,-35.766,M,,*58
$GNVTG,78.13,T,81.80,M,0.01,N,0.02,K,A*32
$GNHDT,63.892,T*1D
$GNGGA,094228.90,3422.44197361,N,10854.00015584,E,1,12,1.1,373.969,M,-35.766,M,,*59
$GNVTG,80.94,T,84.60,M,0.02,N,0.03,K,A*33
$GNHDT,63.905,T*12
$GNGGA,094229.00,3422.44197373,N,10854.00015601,E,1,12,1.0,373.969,M,-35.766,M,,*5D
$GNVTG,81.72,T,85.39,M,0.01,N,0.03,K,A*34
$GNHDT,64.008,T*11
$GNGGA,094229.10,3422.44197385,N,10854.00015617,E,1,12,1.0,373.968,M,-35.766,M,,*53
$GNVTG,56.97,T,60.63,M,0.01,N,0.03,K,A*31
$GNHDT,63.947,T*14
$GNGGA,094229.20,3422.44197397,N,10854.00015633,E,1,12,1.0,373.968,M,-35.766,M,,*55
$GNVTG,56.62,T,60.28,M,0.01,N,0.02,K,A*35
$GNHDT,63.847,T*15
$GNGGA,094229.30,3422.44197409,N,10854.00015650,E,1,12,1.0,373.968,M,-35.766,M,,*51
$GNVTG,92.31,T,95.97,M,0.03,N,0.05,K,A*30
$GNHDT,63.868,T*18
$GNGGA,094229.40,3422.44197421,N,10854.00015667,E,1,12,1.0,373.967,M,-35.766,M,,*57
$GNVTG,92.97,T,96.63,M,0.02,N,0.04,K,A*34
$GNHDT,63.889,T*17
$GNGGA,094229.50,3422.44197433,N,10854.00015684,E,1,12,1.0,373.967,M,-35.766,M,,*58
$GNVTG,79.83,T,83.50,M,0.03,N,0.06,K,A*33
$GNHDT,63.861,T*11
$GNGGA,094229.60,3422.44197445,N,10854.00015700,E,1,12,1.0,373.966,M,-35.766,M,,*56
$GNVTG,80.01,T,83.67,M,0.03,N,0.05,K,A*38
$GNHDT,63.846,T*14
$GNGGA,094229.70,3422.44197456,N,10854.00015717,E,1,12,1.0,373.966,M,-35.766,M,,*53
$GNVTG,113.89,T,117.56,M,0.01,N,0.02,K,A*38
$GNHDT,63.921,T*14
$GNGGA,094229.80,3422.44197468,N,10854.00015732,E,1,12,1.0,373.965,M,-35.766,M,,*55
$GNVTG,72.01,T,75.67,M,0.01,N,0.02,K,A*39
$GNHDT,63.956,T*14
$GNGGA,094229.90,3422.44197479,N,10854.00015747,E,1,12,1.0,373.965,M,-35.766,M,,*56
$GNVTG,262.65,T,266.31,M,0.01,N,0.02,K,A*3B
$GNHDT,63.926,T*13
$GNGGA,094230.00,3422.44197491,N,10854.00015762,E,1,12,1.0,373.965,M,-35.766,M,,*56
$GNVTG,291.47,T,295.14,M,0.01,N,0.03,K,A*3D
$GNHDT,63.849,T*1B
$GNGGA,094230.10,3422.44197503,N,10854.00015778,E,1,12,1.0,373.964,M,-35.766,M,,*57
$GNVTG,121.93,T,125.60,M,0.00,N,0.00,K,A*35
$GNHDT,63.983,T*1C
$GNGGA,094230.20,3422.44197515,N,10854.00015794,E,1,12,1.0,373.964,M,-35.766,M,,*51
$GNVTG,244.99,T,248.66,M,0.00,N,0.01,K,A*30
$GNHDT,63.979,T*19
$GNGGA,094230.30,3422.44197526,N,10854.00015808,E,1,12,1.0,373.963,M,-35.766,M,,*5D
$GNVTG,262.40,T,266.07,M,0.03,N,0.05,K,A*3C
$GNHDT,63.946,T*15
$GNGGA,094230.40,3422.44197538,N,10854.00015822,E,1,12,1.0,373.963,M,-35.766,M,,*5D
$GNVTG,264.68,T,268.35,M,0.02,N,0.04,K,A*3F
$GNHDT,64.001,T*18
$GNGGA,094230.50,3422.44197549,N,10854.00015836,E,1,12,1.0,373.963,M,-35.766,M,,*5F
$GNVTG,271.98,T,275.64,M,0.02,N,0.04,K,A*3C
$GNHDT,63.945,T*16
$GNGGA,094230.60,3422.44197561,N,10854.00015851,E,1,12,1.0,373.962,M,-35.766,M,,*56
$GNVTG,286.76,T,290.42,M,0.02,N,0.03,K,A*3C
$GNHDT,63.905,T*12
$GNGGA,094230.70,3422.44197572,N,10854.00015865,E,1,12,1.0,373.962,M,-35.766,M,,*52
$GNVTG,315.98,T,319.64,M,0.02,N,0.03,K,A*33
$GNHDT,63.887,T*19
$GNGGA,094230.80,3422.44197584,N,10854.00015878,E,1,12,1.0,373.962,M,-35.766,M,,*58
$GNVTG,307.37,T,311.04,M,0.01,N,0.02,K,A*39
$GNHDT,63.942,T*11
$GNGGA,094230.90,3422.44197595,N,10854.00015891,E,1,12,1.0,373.961,M,-35.766,M,,*5D
$GNVTG,294.67,T,298.33,M,0.02,N,0.04,K,A*36
$GNHDT,63.920,T*15
$GNGGA,094231.00,3422.44197606,N,10854.00015904,E,1,12,1.0,373.961,M,-35.766,M,,*51
$GNVTG,284.19,T,287.85,M,0.02,N,0.04,K,A*3D
$GNHDT,63.925,T*10
$GNGGA,094231.10,3422.44197617,N,10854.00015917,E,1,12,1.0,373.961,M,-35.766,M,,*52
$GNVTG,275.89,T,279.55,M,0.03,N,0.06,K,A*35
$GNHDT,63.932,T*16
$GNGGA,094231.20,3422.44197629,N,10854.00015929,E,1,12,1.0,373.960,M,-35.766,M,,*50
$GNVTG,287.51,T,291.18,M,0.03,N,0.05,K,A*31
$GNHDT,63.990,T*1E
$GNGGA,094231.30,3422.44197640,N,10854.00015942,E,1,12,1.0,373.960,M,-35.766,M,,*53
$GNVTG,309.34,T,313.01,M,0.01,N,0.01,K,A*30
$GNHDT,63.982,T*1D
$GNGGA,094231.40,3422.44197651,N,10854.00015954,E,1,12,1.0,373.960,M,-35.766,M,,*53
$GNVTG,354.37,T,358.03,M,0.00,N,0.01,K,A*37
$GNHDT,63.825,T*11
$GNGGA,094231.50,3422.44197662,N,10854.00015966,E,1,12,1.0,373.959,M,-35.766,M,,*59
$GNVTG,216.65,T,220.32,M,0.02,N,0.03,K,A*3B
$GNHDT,63.979,T*19
$GNGGA,094231.60,3422.44197673,N,10854.00015978,E,1,12,1.0,373.959,M,-35.766,M,,*55
$GNVTG,197.04,T,200.70,M,0.02,N,0.03,K,A*32
$GNHDT,63.849,T*1B
$GNGGA,094231.70,3422.44197684,N,10854.00015990,E,1,12,1.0,373.959,M,-35.766,M,,*5A
$GNVTG,122.84,T,126.50,M,0.02,N,0.04,K,A*36
$GNHDT,63.911,T*17
$GNGGA,094231.80,3422.44197696,N,10854.00016003,E,1,12,1.0,373.958,M,-35.766,M,,*57
$GNVTG,98.47,T,102.14,M,0.02,N,0.04,K,A*0F
$GNHDT,63.904,T*13
$GNGGA,094231.90,3422.44197708,N,10854.00016016,E,1,12,1.0,373.958,M,-35.766,M,,*54
$GNVTG,51.38,T,55.04,M,0.03,N,0.05,K,A*30
$GNHDT,63.882,T*1C
$GNGGA,094232.00,3422.44197719,N,10854.00016029,E,1,12,1.0,373.958,M,-35.766,M,,*52
$GNVTG,39.44,T,43.11,M,0.03,N,0.06,K,A*35
$GNHDT,63.884,T*1A
$GNGGA,094232.10,3422.44197731,N,10854.00016041,E,1,12,1.0,373.957,M,-35.766,M,,*58
$GNVTG,19.98,T,23.65,M,0.03,N,0.05,K,A*30
$GNHDT,63.726,T*1D
$GNGGA,094232.20,3422.44197743,N,10854.00016053,E,1,12,1.0,373.957,M,-35.766,M,,*5D
$GNVTG,339.34,T,343.01,M,0.01,N,0.03,K,A*34
$GNHDT,63.930,T*14
$GNGGA,094232.30,3422.44197754,N,10854.00016065,E,1,12,1.0,373.957,M,-35.766,M,,*5F
$GNVTG,316.56,T,320.22,M,0.02,N,0.03,K,A*3A
$GNHDT,63.813,T*14
$GNGGA,094232.40,3422.44197765,N,10854.00016077,E,1,12,1.0,373.956,M,-35.766,M,,*58
$GNVTG,281.20,T,284.87,M,0.01,N,0.01,K,A*35
$GNHDT,63.791,T*11
$GNGGA,094232.50,3422.44197776,N,10854.00016089,E,1,12,1.0,373.956,M,-35.766,M,,*5A
$GNVTG,153.20,T,156.86,M,0.02,N,0.03,K,A*35
$GNHDT,63.835,T*10
$GNGGA,094232.60,3422.44197787,N,10854.00016101,E,1,12,1.0,373.956,M,-35.766,M,,*56
$GNVTG,105.51,T,109.17,M,0.02,N,0.03,K,A*32
$GNHDT,63.747,T*1A
$GNGGA,094232.70,3422.44197798,N,10854.00016113,E,1,12,1.0,373.956,M,-35.766,M,,*5A
$GNVTG,93.77,T,97.44,M,0.03,N,0.05,K,A*3F
$GNHDT,63.871,T*10
$GNGGA,094232.80,3422.44197809,N,10854.00016125,E,1,12,1.0,373.955,M,-35.766,M,,*54
$GNVTG,60.33,T,63.99,M,0.02,N,0.04,K,A*38
$GNHDT,63.837,T*12
$GNGGA,094232.90,3422.44197821,N,10854.00016138,E,1,12,1.0,373.955,M,-35.766,M,,*53
$GNVTG,72.00,T,75.67,M,0.03,N,0.06,K,A*3E
$GNHDT,63.893,T*1C
$GNGGA,094233.00,3422.44197833,N,10854.00016150,E,1,12,1.0,373.955,M,-35.766,M,,*56
$GNVTG,72.45,T,76.11,M,0.03,N,0.05,K,A*3E
$GNHDT,63.806,T*10
$GNGGA,094233.10,3422.44197844,N,10854.00016164,E,1,12,1.0,373.954,M,-35.766,M,,*51
$GNVTG,100.89,T,104.55,M,0.04,N,0.07,K,A*3B
$GNHDT,63.921,T*14
$GNGGA,094233.20,3422.44197856,N,10854.00016177,E,1,12,1.0,373.954,M,-35.766,M,,*53
$GNVTG,104.27,T,107.93,M,0.03,N,0.06,K,A*34
$GNHDT,63.950,T*12
$GNGGA,094233.30,3422.44197868,N,10854.00016190,E,1,12,1.0,373.954,M,-35.766,M,,*56
$GNVTG,126.52,T,130.18,M,0.01,N,0.02,K,A*37
$GNHDT,63.759,T*15
$GNGGA,094233.40,3422.44197880,N,10854.00016203,E,1,12,1.0,373.954,M,-35.766,M,,*5E
$GNVTG,97.64,T,101.31,M,0.00,N,0.00,K,A*03
$GNHDT,63.847,T*15
$GNGGA,094233.50,3422.44197891,N,10854.00016216,E,1,12,1.0,373.953,M,-35.766,M,,*5C
$GNVTG,121.48,T,125.15,M,0.00,N,0.00,K,A*31
$GNHDT,63.893,T*1C
$GNGGA,094233.60,3422.44197903,N,10854.00016229,E,1,12,1.0,373.953,M,-35.766,M,,*59
$GNVTG,100.76,T,104.42,M,0.00,N,0.01,K,A*3F
$GNHDT,63.957,T*15
$GNGGA,094233.70,3422.44197915,N,10854.00016242,E,1,12,1.0,373.953,M,-35.766,M,,*52
$GNVTG,297.14,T,300.80,M,0.01,N,0.01,K,A*3F
$GNHDT,63.720,T*1B
$GNGGA,094233.80,3422.44197927,N,10854.00016254,E,1,12,1.0,373.952,M,-35.766,M,,*5A
$GNVTG,338.54,T,342.20,M,0.01,N,0.02,K,A*30
$GNHDT,63.877,T*16
$GNGGA,094233.90,3422.44197938,N,10854.00016267,E,1,12,1.0,373.952,M,-35.766,M,,*55
$GNVTG,329.52,T,333.18,M,0.01,N,0.01,K,A*38
$GNHDT,63.927,T*12
$GNGGA,094234.00,3422.44197950,N,10854.00016280,E,1,12,1.0,373.952,M,-35.766,M,,*5C
$GNVTG,289.48,T,293.14,M,0.00,N,0.01,K,A*3E
$GNHDT,63.848,T*1A
$GNGGA,094234.10,3422.44197962,N,10854.00016293,E,1,12,1.0,373.951,M,-35.766,M,,*5D
$GNVTG,119.81,T,123.47,M,0.02,N,0.03,K,A*3F
$GNHDT,63.866,T*16
$GNGGA,094234.20,3422.44197973,N,10854.00016306,E,1,12,1.0,373.951,M,-35.766,M,,*53
$GNVTG,122.59,T,126.25,M,0.02,N,0.03,K,A*33
$GNHDT,63.722,T*19
$GNGGA,094234.30,3422.44197985,N,10854.00016319,E,1,12,1.0,373.951,M,-35.766,M,,*55
$GNVTG,139.70,T,143.36,M,0.03,N,0.05,K,A*34
$GNHDT,63.827,T*13
$GNGGA,094234.40,3422.44197996,N,10854.00016332,E,1,12,1.0,373.951,M,-35.766,M,,*59
$GNVTG,126.91,T,130.58,M,0.02,N,0.03,K,A*3E
$GNHDT,63.686,T*16
$GNGGA,094234.50,3422.44198008,N,10854.00016346,E,1,12,1.0,373.950,M,-35.766,M,,*5B
$GNVTG,124.34,T,128.00,M,0.03,N,0.06,K,A*33
$GNHDT,63.739,T*13
$GNGGA,094234.60,3422.44198019,N,10854.00016359,E,1,12,1.0,373.950,M,-35.766,M,,*56
$GNVTG,116.21,T,119.88,M,0.03,N,0.05,K,A*37
$GNHDT,63.864,T*14
$GNGGA,094234.70,3422.44198030,N,10854.00016373,E,1,12,1.0,373.950,M,-35.766,M,,*54
$GNVTG,87.34,T,91.00,M,0.04,N,0.07,K,A*3E
$GNHDT,63.811,T*16
$GNGGA,094234.80,3422.44198042,N,10854.00016386,E,1,12,1.0,373.949,M,-35.766,M,,*5C
$GNVTG,78.95,T,82.61,M,0.04,N,0.08,K,A*3F
$GNHDT,63.903,T*14
$GNGGA,094234.90,3422.44198053,N,10854.00016400,E,1,12,1.0,373.949,M,-35.766,M,,*54
$GNVTG,77.34,T,81.01,M,0.04,N,0.07,K,A*31
$GNHDT,63.850,T*13
$GNGGA,094235.00,3422.44198065,N,10854.00016413,E,1,12,1.0,373.949,M,-35.766,M,,*5B
$GNVTG,64.24,T,67.91,M,0.03,N,0.06,K,A*35
$GNHDT,63.871,T*10
$GNGGA,094235.10,3422.44198077,N,10854.00016426,E,1,12,1.0,373.948,M,-35.766,M,,*5E
$GNVTG,60.60,T,64.26,M,0.03,N,0.05,K,A*3D
$GNHDT,63.748,T*15
$GNGGA,094235.20,3422.44198089,N,10854.00016438,E,1,12,1.0,373.948,M,-35.766,M,,*53
$GNVTG,42.44,T,46.10,M,0.02,N,0.03,K,A*39
$GNHDT,63.727,T*1C
$GNGGA,094235.30,3422.44198101,N,10854.00016451,E,1,12,1.0,373.948,M,-35.766,M,,*5C
$GNVTG,83.67,T,87.33,M,0.03,N,0.05,K,A*3E
$GNHDT,63.661,T*1F
$GNGGA,094235.40,3422.44198114,N,10854.00016465,E,1,12,1.0,373.948,M,-35.766,M,,*58
$GNVTG,78.12,T,81.79,M,0.02,N,0.04,K,A*30
$GNHDT,63.688,T*18
$GNGGA,094235.50,3422.44198126,N,10854.00016478,E,1,12,1.0,373.947,M,-35.766,M,,*5B
$GNVTG,125.27,T,128.94,M,0.03,N,0.05,K,A*3E
$GNHDT,63.748,T*15
$GNGGA,094235.60,3422.44198139,N,10854.00016492,E,1,12,1.0,373.947,M,-35.766,M,,*52
$GNVTG,115.18,T,118.84,M,0.02,N,0.04,K,A*33
$GNHDT,63.740,T*1D
$GNGGA,094235.70,3422.44198151,N,10854.00016505,E,1,12,1.0,373.947,M,-35.766,M,,*52
$GNVTG,237.13,T,240.79,M,0.00,N,0.00,K,A*31
$GNHDT,63.868,T*18
$GNGGA,094235.80,3422.44198163,N,10854.00016518,E,1,12,1.0,373.946,M,-35.766,M,,*51
$GNVTG,221.33,T,224.99,M,0.00,N,0.01,K,A*39
$GNHDT,63.720,T*1B
$GNGGA,094235.90,3422.44198176,N,10854.00016531,E,1,12,1.0,373.946,M,-35.766,M,,*5F
$GNVTG,284.91,T,288.58,M,0.02,N,0.04,K,A*32
$GNHDT,63.667,T*19
$GNGGA,094236.00,3422.44198188,N,10854.00016544,E,1,12,1.0,373.946,M,-35.766,M,,*56
$GNVTG,290.05,T,293.72,M,0.03,N,0.05,K,A*38
$GNHDT,63.822,T*16
$GNGGA,094236.10,3422.44198201,N,10854.00016556,E,1,12,1.0,373.945,M,-35.766,M,,*55
$GNVTG,301.60,T,305.27,M,0.03,N,0.06,K,A*3F
$GNHDT,63.795,T*15
$GNGGA,094236.20,3422.44198213,N,10854.00016568,E,1,12,1.0,373.945,M,-35.766,M,,*58
$GNVTG,314.08,T,317.74,M,0.03,N,0.06,K,A*30
$GNHDT,63.736,T*1C
$GNGGA,094236.30,3422.44198226,N,10854.00016580,E,1,12,1.0,373.945,M,-35.766,M,,*59
$GNVTG,279.67,T,283.33,M,0.02,N,0.04,K,A*3F
$GNHDT,63.890,T*1F
$GNGGA,094236.40,3422.44198238,N,10854.00016592,E,1,12,1.0,373.945,M,-35.766,M,,*52
$GNVTG,290.44,T,294.10,M,0.01,N,0.02,K,A*3B
$GNHDT,63.803,T*15
$GNGGA,094236.50,3422.44198251,N,10854.00016605,E,1,12,1.0,373.944,M,-35.766,M,,*50
$GNVTG,157.13,T,160.79,M,0.02,N,0.03,K,A*34
$GNHDT,63.874,T*15
$GNGGA,094236.60,3422.44198263,N,10854.00016618,E,1,12,1.0,373.944,M,-35.766,M,,*5E
$GNVTG,136.89,T,140.55,M,0.02,N,0.03,K,A*3C
$GNHDT,63.799,T*19
$GNGGA,094236.70,3422.44198274,N,10854.00016631,E,1,12,1.0,373.944,M,-35.766,M,,*52
$GNVTG,192.91,T,196.58,M,0.02,N,0.04,K,A*3A
$GNHDT,63.821,T*15
$GNGGA,094236.80,3422.44198285,N,10854.00016643,E,1,12,1.0,373.944,M,-35.766,M,,*56
$GNVTG,195.78,T,199.45,M,0.02,N,0.04,K,A*39
$GNHDT,63.805,T*13
$GNGGA,094236.90,3422.44198297,N,10854.00016655,E,1,12,1.0,373.943,M,-35.766,M,,*54
$GNVTG,169.68,T,173.34,M,0.01,N,0.01,K,A*3F
$GNHDT,63.796,T*16
$GNGGA,094237.00,3422.44198308,N,10854.00016667,E,1,12,1.0,373.943,M,-35.766,M,,*5A
$GNVTG,169.10,T,172.76,M,0.01,N,0.01,K,A*37
$GNHDT,63.818,T*1F
$GNGGA,094237.10,3422.44198318,N,10854.00016680,E,1,12,1.0,373.943,M,-35.766,M,,*53
$GNVTG,161.04,T,164.70,M,0.03,N,0.05,K,A*3D
$GNHDT,63.929,T*1C
$GNGGA,094237.20,3422.44198329,N,10854.00016692,E,1,12,1.0,373.943,M,-35.766,M,,*51
$GNVTG,129.81,T,133.48,M,0.02,N,0.04,K,A*35
$GNHDT,63.841,T*13
$GNGGA,094237.30,3422.44198339,N,10854.00016705,E,1,12,1.0,373.943,M,-35.766,M,,*5E
$GNVTG,137.14,T,140.80,M,0.02,N,0.05,K,A*37
$GNHDT,63.877,T*16
$GNGGA,094237.40,3422.44198350,N,10854.00016718,E,1,12,1.0,373.942,M,-35.766,M,,*5B
$GNVTG,114.22,T,117.88,M,0.02,N,0.04,K,A*38
$GNHDT,63.747,T*1A
$GNGGA,094237.50,3422.44198361,N,10854.00016731,E,1,12,1.0,373.942,M,-35.766,M,,*53
$GNVTG,100.25,T,103.92,M,0.02,N,0.03,K,A*33
$GNHDT,63.844,T*16
$GNGGA,094237.60,3422.44198372,N,10854.00016744,E,1,12,1.0,373.942,M,-35.766,M,,*50
$GNVTG,56.65,T,60.31,M,0.01,N,0.02,K,A*3A
$GNHDT,63.707,T*1E
$GNGGA,094237.70,3422.44198383,N,10854.00016758,E,1,12,1.0,373.941,M,-35.766,M,,*51
$GNVTG,74.47,T,78.13,M,0.01,N,0.02,K,A*33
$GNHDT,63.912,T*14
$GNGGA,094237.80,3422.44198393,N,10854.00016771,E,1,12,1.0,373.941,M,-35.766,M,,*54
$GNVTG,72.42,T,76.08,M,0.01,N,0.02,K,A*34
$GNHDT,63.827,T*13
$GNGGA,094237.90,3422.44198403,N,10854.00016784,E,1,12,1.0,373.941,M,-35.766,M,,*51
$GNVTG,167.32,T,170.98,M,0.01,N,0.03,K,A*39
$GNHDT,63.780,T*11
$GNGGA,094238.00,3422.44198413,N,10854.00016796,E,1,12,1.0,373.941,M,-35.766,M,,*55
$GNVTG,158.54,T,162.21,M,0.01,N,0.02,K,A*35
$GNHDT,63.763,T*1C
$GNGGA,094238.10,3422.44198424,N,10854.00016808,E,1,12,1.0,373.940,M,-35.766,M,,*59
$GNVTG,13.90,T,17.57,M,0.01,N,0.02,K,A*31
$GNHDT,63.855,T*16
$GNGGA,094238.20,3422.44198435,N,10854.00016821,E,1,12,1.0,373.940,M,-35.766,M,,*51
$GNVTG,14.02,T,17.69,M,0.02,N,0.03,K,A*32
$GNHDT,63.896,T*19
$GNGGA,094238.30,3422.44198446,N,10854.00016834,E,1,12,1.0,373.940,M,-35.766,M,,*50
$GNVTG,20.75,T,24.41,M,0.02,N,0.03,K,A*3F
$GNHDT,63.956,T*14
$GNGGA,094238.40,3422.44198457,N,10854.00016848,E,1,12,1.0,373.940,M,-35.766,M,,*5C
$GNVTG,52.00,T,55.67,M,0.02,N,0.03,K,A*3A
$GNHDT,64.005,T*1C
$GNGGA,094238.50,3422.44198468,N,10854.00016862,E,1,12,1.0,373.939,M,-35.766,M,,*57
$GNVTG,37.57,T,41.23,M,0.03,N,0.06,K,A*3A
$GNHDT,63.877,T*16
$GNGGA,094238.60,3422.44198475,N,10854.00016872,E,1,12,1.1,373.939,M,-35.766,M,,*58
$GNVTG,39.07,T,42.73,M,0.02,N,0.04,K,A*34
$GNHDT,64.029,T*12
$GNGGA,094238.70,3422.44198483,N,10854.00016882,E,1,12,1.1,373.939,M,-35.766,M,,*5F
$GNVTG,6.37,T,10.04,M,0.03,N,0.06,K,A*0F
$GNHDT,63.858,T*1B
$GNGGA,094238.80,3422.44198490,N,10854.00016892,E,1,12,1.1,373.939,M,-35.766,M,,*53
$GNVTG,352.73,T,356.39,M,0.03,N,0.05,K,A*31
$GNHDT,63.904,T*13
$GNGGA,094238.90,3422.44198498,N,10854.00016903,E,1,12,1.1,373.939,M,-35.766,M,,*53
$GNVTG,32.72,T,36.38,M,0.03,N,0.06,K,A*32
$GNHDT,63.970,T*10
$GNGGA,094239.00,3422.44198509,N,10854.00016917,E,1,12,1.0,373.939,M,-35.766,M,,*56
$GNVTG,38.70,T,42.37,M,0.03,N,0.05,K,A*35
$GNHDT,63.970,T*10
$GNGGA,094239.10,3422.44198521,N,10854.00016932,E,1,12,1.0,373.938,M,-35.766,M,,*5B
$GNVTG,27.69,T,31.35,M,0.02,N,0.04,K,A*35
$GNHDT,63.851,T*12
$GNGGA,094239.20,3422.44198532,N,10854.00016946,E,1,12,1.0,373.938,M,-35.766,M,,*59
$GNVTG,38.67,T,42.33,M,0.02,N,0.04,K,A*37
$GNHDT,63.862,T*12
$GNGGA,094239.30,3422.44198543,N,10854.00016961,E,1,12,1.0,373.938,M,-35.766,M,,*5B
$GNVTG,59.70,T,63.36,M,0.02,N,0.05,K,A*31
$GNHDT,63.862,T*12
$GNGGA,094239.40,3422.44198553,N,10854.00016976,E,1,12,1.0,373.938,M,-35.766,M,,*5B
$GNVTG,49.27,T,52.94,M,0.02,N,0.03,K,A*3E
$GNHDT,63.808,T*1E
$GNGGA,094239.50,3422.44198564,N,10854.00016991,E,1,12,1.0,373.937,M,-35.766,M,,*58
$GNVTG,88.10,T,91.76,M,0.02,N,0.04,K,A*33
$GNHDT,63.956,T*14
$GNGGA,094239.60,3422.44198575,N,10854.00017006,E,1,12,1.0,373.937,M,-35.766,M,,*5D
$GNVTG,91.14,T,94.80,M,0.02,N,0.03,K,A*34
$GNHDT,63.763,T*1C
$GNGGA,094239.70,3422.44198585,N,10854.00017021,E,1,12,1.0,373.937,M,-35.766,M,,*56
$GNVTG,116.37,T,120.04,M,0.02,N,0.05,K,A*3F
$GNHDT,63.975,T*15
$GNGGA,094239.80,3422.44198595,N,10854.00017036,E,1,12,1.0,373.937,M,-35.766,M,,*5E
$GNVTG,98.31,T,101.97,M,0.03,N,0.05,K,A*06
$GNHDT,63.866,T*16
$GNGGA,094239.90,3422.44198605,N,10854.00017051,E,1,12,1.0,373.936,M,-35.766,M,,*55
$GNVTG,155.30,T,158.96,M,0.01,N,0.02,K,A*3F
$GNHDT,63.753,T*1F
$GNGGA,094240.00,3422.44198616,N,10854.00017067,E,1,12,1.0,373.936,M,-35.766,M,,*55
$GNVTG,128.31,T,131.97,M,0.01,N,0.02,K,A*3A
$GNHDT,63.918,T*1E
$GNGGA,094240.10,3422.44198626,N,10854.00017082,E,1,12,1.0,373.936,M,-35.766,M,,*5C
$GNVTG,87.46,T,91.12,M,0.01,N,0.02,K,A*38
$GNHDT,63.897,T*18
$GNGGA,094240.20,3422.44198636,N,10854.00017098,E,1,12,1.0,373.936,M,-35.766,M,,*55
$GNVTG,97.63,T,101.29,M,0.01,N,0.02,K,A*0E
$GNHDT,63.901,T*16
$GNGGA,094240.30,3422.44198646,N,10854.00017113,E,1,12,1.0,373.936,M,-35.766,M,,*51
$GNVTG,61.95,T,65.61,M,0.02,N,0.03,K,A*33
$GNHDT,63.881,T*1F
$GNGGA,094240.40,3422.44198655,N,10854.00017128,E,1,12,1.0,373.935,M,-35.766,M,,*5F
$GNVTG,51.63,T,55.29,M,0.02,N,0.04,K,A*31
$GNHDT,63.782,T*13
$GNGGA,094240.50,3422.44198665,N,10854.00017143,E,1,12,1.0,373.935,M,-35.766,M,,*50
$GNVTG,71.72,T,75.39,M,0.02,N,0.04,K,A*30
$GNHDT,63.794,T*14
$GNGGA,094240.60,3422.44198675,N,10854.00017159,E,1,12,1.0,373.935,M,-35.766,M,,*59
$GNVTG,53.08,T,56.75,M,0.02,N,0.04,K,A*34
$GNHDT,64.004,T*1D
$GNGGA,094240.70,3422.44198685,N,10854.00017175,E,1,12,1.0,373.935,M,-35.766,M,,*59
$GNVTG,17.37,T,21.03,M,0.03,N,0.05,K,A*39
$GNHDT,63.948,T*1B
$GNGGA,094240.80,3422.44198695,N,10854.00017191,E,1,12,1.0,373.935,M,-35.766,M,,*5D
$GNVTG,22.93,T,26.60,M,0.02,N,0.04,K,A*33
$GNHDT,63.915,T*13
$GNGGA,094240.90,3422.44198705,N,10854.00017206,E,1,12,1.0,373.934,M,-35.766,M,,*58
$GNVTG,32.19,T,35.85,M,0.02,N,0.04,K,A*39
$GNHDT,63.904,T*13
$GNGGA,094241.00,3422.44198714,N,10854.00017222,E,1,12,1.0,373.934,M,-35.766,M,,*56
$GNVTG,39.18,T,42.85,M,0.02,N,0.04,K,A*33
$GNHDT,63.823,T*17
$GNGGA,094241.10,3422.44198724,N,10854.00017237,E,1,12,1.0,373.934,M,-35.766,M,,*50
$GNVTG,80.73,T,84.40,M,0.02,N,0.03,K,A*38
$GNHDT,63.891,T*1E
$GNGGA,094241.20,3422.44198733,N,10854.00017253,E,1,12,1.0,373.934,M,-35.766,M,,*57
$GNVTG,71.61,T,75.28,M,0.02,N,0.03,K,A*35
$GNHDT,63.772,T*1C
$GNGGA,094241.30,3422.44198743,N,10854.00017269,E,1,12,1.0,373.934,M,-35.766,M,,*58
$GNVTG,80.03,T,83.70,M,0.02,N,0.03,K,A*3B
$GNHDT,63.742,T*1F
$GNGGA,094241.40,3422.44198752,N,10854.00017284,E,1,12,1.0,373.933,M,-35.766,M,,*5B
$GNVTG,84.30,T,87.96,M,0.02,N,0.03,K,A*33
$GNHDT,64.038,T*12
$GNGGA,094241.50,3422.44198761,N,10854.00017300,E,1,12,1.0,373.933,M,-35.766,M,,*57
$GNVTG,40.76,T,44.42,M,0.02,N,0.04,K,A*38
$GNHDT,63.841,T*13
$GNGGA,094241.60,3422.44198771,N,10854.00017315,E,1,12,1.0,373.933,M,-35.766,M,,*51
$GNVTG,37.38,T,41.05,M,0.03,N,0.05,K,A*34
$GNHDT,63.758,T*14
$GNGGA,094241.70,3422.44198781,N,10854.00017330,E,1,12,1.0,373.933,M,-35.766,M,,*58
$GNVTG,41.41,T,45.08,M,0.04,N,0.07,K,A*37
$GNHDT,63.710,T*18
$GNGGA,094241.80,3422.44198791,N,10854.00017345,E,1,12,1.0,373.932,M,-35.766,M,,*55
$GNVTG,51.79,T,55.45,M,0.04,N,0.07,K,A*35
$GNHDT,63.879,T*18
$GNGGA,094241.90,3422.44198802,N,10854.00017361,E,1,12,1.0,373.932,M,-35.766,M,,*57
$GNVTG,60.15,T,63.81,M,0.04,N,0.07,K,A*30
$GNHDT,63.876,T*17
$GNGGA,094242.00,3422.44198812,N,10854.00017376,E,1,12,1.0,373.932,M,-35.766,M,,*5A
$GNVTG,62.46,T,66.13,M,0.02,N,0.05,K,A*3E
$GNHDT,63.712,T*1A
$GNGGA,094242.10,3422.44198822,N,10854.00017391,E,1,12,1.0,373.932,M,-35.766,M,,*51
$GNVTG,72.61,T,76.28,M,0.01,N,0.03,K,A*36
$GNHDT,64.103,T*1B
$GNGGA,094242.20,3422.44198832,N,10854.00017406,E,1,12,1.0,373.932,M,-35.766,M,,*5A
$GNVTG,29.08,T,32.74,M,0.01,N,0.03,K,A*3E
$GNHDT,63.985,T*1A
$GNGGA,094242.30,3422.44198843,N,10854.00017421,E,1,12,1.0,373.931,M,-35.766,M,,*5B
$GNVTG,358.91,T,2.57,M,0.02,N,0.03,K,A*3A
$GNHDT,63.996,T*18
$GNGGA,094242.40,3422.44198854,N,10854.00017437,E,1,12,1.0,373.931,M,-35.766,M,,*5D
$GNVTG,50.42,T,54.08,M,0.02,N,0.03,K,A*36
$GNHDT,64.006,T*1F
$GNGGA,094242.50,3422.44198865,N,10854.00017454,E,1,12,1.0,373.931,M,-35.766,M,,*5B
$GNVTG,76.36,T,80.03,M,0.03,N,0.05,K,A*34
$GNHDT,63.960,T*11
$GNGGA,094242.60,3422.44198875,N,10854.00017470,E,1,12,1.0,373.931,M,-35.766,M,,*5F
$GNVTG,79.77,T,83.44,M,0.03,N,0.06,K,A*3D
$GNHDT,64.055,T*19
$GNGGA,094242.70,3422.44198886,N,10854.00017486,E,1,12,1.0,373.930,M,-35.766,M,,*5A
$GNVTG,55.24,T,58.90,M,0.04,N,0.07,K,A*3C
$GNHDT,63.913,T*15
$GNGGA,094242.80,3422.44198896,N,10854.00017503,E,1,12,1.0,373.930,M,-35.766,M,,*58
$GNVTG,42.28,T,45.94,M,0.03,N,0.06,K,A*38
$GNHDT,64.011,T*19
$GNGGA,094242.90,3422.44198907,N,10854.00017519,E,1,12,1.0,373.930,M,-35.766,M,,*5B
$GNVTG,11.76,T,15.43,M,0.02,N,0.04,K,A*39
$GNHDT,64.061,T*1E
$GNGGA,094243.00,3422.44198917,N,10854.00017535,E,1,12,1.0,373.930,M,-35.766,M,,*5C
$GNVTG,352.21,T,355.88,M,0.02,N,0.03,K,A*38
$GNHDT,64.141,T*1D
$GNGGA,094243.10,3422.44198928,N,10854.00017551,E,1,12,1.0,373.929,M,-35.766,M,,*5B
$GNVTG,320.02,T,323.69,M,0.03,N,0.06,K,A*36
$GNHDT,63.936,T*12
$GNGGA,094243.20,3422.44198938,N,10854.00017565,E,1,12,1.0,373.929,M,-35.766,M,,*5E
$GNVTG,308.43,T,312.09,M,0.03,N,0.06,K,A*3D
$GNHDT,63.866,T*16
$GNGGA,094243.30,3422.44198949,N,10854.00017580,E,1,12,1.0,373.929,M,-35.766,M,,*52
$GNVTG,315.58,T,319.25,M,0.04,N,0.07,K,A*38
$GNHDT,63.725,T*1E
$GNGGA,094243.40,3422.44198959,N,10854.00017594,E,1,12,1.0,373.929,M,-35.766,M,,*51
$GNVTG,328.65,T,332.32,M,0.03,N,0.05,K,A*32
$GNHDT,63.794,T*14
$GNGGA,094243.50,3422.44198970,N,10854.00017609,E,1,12,1.0,373.928,M,-35.766,M,,*5D
$GNVTG,354.93,T,358.60,M,0.01,N,0.01,K,A*3D
$GNHDT,63.954,T*16
$GNGGA,094243.60,3422.44198981,N,10854.00017623,E,1,12,1.0,373.928,M,-35.766,M,,*58
$GNVTG,81.29,T,84.96,M,0.01,N,0.02,K,A*3F
$GNHDT,63.839,T*1C
$GNGGA,094243.70,3422.44198992,N,10854.00017638,E,1,12,1.0,373.928,M,-35.766,M,,*51
$GNVTG,91.77,T,95.44,M,0.03,N,0.05,K,A*3F
$GNHDT,63.800,T*16
$GNGGA,094243.80,3422.44199004,N,10854.00017652,E,1,12,1.0,373.927,M,-35.766,M,,*5A
$GNVTG,87.51,T,91.18,M,0.03,N,0.05,K,A*31
$GNHDT,63.777,T*19
$GNGGA,094243.90,3422.44199016,N,10854.00017666,E,1,12,1.0,373.927,M,-35.766,M,,*5F
$GNVTG,95.51,T,99.18,M,0.03,N,0.06,K,A*39
$GNHDT,63.923,T*16
$GNGGA,094244.00,3422.44199028,N,10854.00017680,E,1,12,1.0,373.927,M,-35.766,M,,*54
$GNVTG,96.81,T,100.48,M,0.03,N,0.05,K,A*00
$GNHDT,63.893,T*1C
$GNGGA,094244.10,3422.44199041,N,10854.00017694,E,1,12,1.0,373.927,M,-35.766,M,,*5F
$GNVTG,55.74,T,59.40,M,0.03,N,0.05,K,A*30
$GNHDT,63.959,T*1B
$GNGGA,094244.20,3422.44199055,N,10854.00017707,E,1,12,1.0,373.926,M,-35.766,M,,*53
$GNVTG,34.21,T,37.88,M,0.02,N,0.03,K,A*3C
$GNHDT,63.701,T*18
$GNGGA,094244.30,3422.44199068,N,10854.00017720,E,1,12,1.0,373.926,M,-35.766,M,,*59
$GNVTG,215.74,T,219.40,M,0.02,N,0.03,K,A*37
$GNHDT,63.917,T*11
$GNGGA,094244.40,3422.44199082,N,10854.00017733,E,1,12,1.0,373.925,M,-35.766,M,,*5B
$GNVTG,269.73,T,273.39,M,0.01,N,0.02,K,A*3B
$GNHDT,63.951,T*13
$GNGGA,094244.50,3422.44199096,N,10854.00017745,E,1,12,1.0,373.925,M,-35.766,M,,*5E
$GNVTG,46.21,T,49.88,M,0.01,N,0.01,K,A*31
$GNHDT,63.972,T*12
$GNGGA,094244.60,3422.44199110,N,10854.00017758,E,1,12,1.0,373.925,M,-35.766,M,,*5E
$GNVTG,63.59,T,67.26,M,0.01,N,0.02,K,A*32
$GNHDT,63.849,T*1B
$GNGGA,094244.70,3422.44199125,N,10854.00017771,E,1,12,1.0,373.924,M,-35.766,M,,*53
$GNVTG,284.96,T,288.62,M,0.01,N,0.01,K,A*3A
$GNHDT,63.909,T*1E
$GNGGA,094244.80,3422.44199139,N,10854.00017784,E,1,12,1.0,373.924,M,-35.766,M,,*5B
$GNVTG,245.39,T,249.06,M,0.01,N,0.02,K,A*3E
$GNHDT,63.830,T*15
$GNGGA,094244.90,3422.44199153,N,10854.00017798,E,1,12,1.0,373.923,M,-35.766,M,,*5C
$GNVTG,226.12,T,229.78,M,0.01,N,0.02,K,A*3D
$GNHDT,63.866,T*16
$GNGGA,094245.00,3422.44199167,N,10854.00017811,E,1,12,1.0,373.923,M,-35.766,M,,*5D
$GNVTG,238.94,T,242.60,M,0.01,N,0.02,K,A*38
$GNHDT,63.937,T*13
$GNGGA,094245.10,3422.44199181,N,10854.00017824,E,1,12,1.0,373.923,M,-35.766,M,,*52
$GNVTG,304.37,T,308.03,M,0.01,N,0.02,K,A*35
$GNHDT,64.029,T*12
$GNGGA,094245.20,3422.44199195,N,10854.00017839,E,1,12,1.0,373.922,M,-35.766,M,,*59
$GNVTG,17.97,T,21.64,M,0.01,N,0.02,K,A*37
$GNHDT,64.007,T*1E
$GNGGA,094245.30,3422.44199208,N,10854.00017852,E,1,12,1.0,373.922,M,-35.766,M,,*52
$GNVTG,293.55,T,297.21,M,0.03,N,0.05,K,A*3C
$GNHDT,63.939,T*1D
$GNGGA,094245.40,3422.44199222,N,10854.00017866,E,1,12,1.0,373.921,M,-35.766,M,,*59
$GNVTG,291.11,T,294.78,M,0.02,N,0.04,K,A*31
$GNHDT,63.972,T*12
$GNGGA,094245.50,3422.44199235,N,10854.00017880,E,1,12,1.0,373.921,M,-35.766,M,,*56
$GNVTG,324.24,T,327.91,M,0.02,N,0.04,K,A*36
$GNHDT,63.874,T*15
$GNGGA,094245.60,3422.44199248,N,10854.00017893,E,1,12,1.0,373.920,M,-35.766,M,,*5C
$GNVTG,327.40,T,331.06,M,0.02,N,0.04,K,A*3E
$GNHDT,63.803,T*15
$GNGGA,094245.70,3422.44199261,N,10854.00017906,E,1,12,1.0,373.920,M,-35.766,M,,*5B
$GNVTG,338.74,T,342.40,M,0.02,N,0.04,K,A*31
$GNHDT,63.885,T*1B
$GNGGA,094245.80,3422.44199274,N,10854.00017919,E,1,12,1.0,373.920,M,-35.766,M,,*5E
$GNVTG,3.93,T,7.60,M,0.03,N,0.05,K,A*33
$GNHDT,63.794,T*14
$GNGGA,094245.90,3422.44199287,N,10854.00017933,E,1,12,1.0,373.919,M,-35.766,M,,*51
$GNVTG,71.66,T,75.33,M,0.01,N,0.03,K,A*3B
$GNHDT,63.985,T*1A
$GNGGA,094246.00,3422.44199300,N,10854.00017947,E,1,12,1.0,373.919,M,-35.766,M,,*56
$GNVTG,92.90,T,96.57,M,0.01,N,0.03,K,A*30
$GNHDT,63.909,T*1E
$GNGGA,094246.10,3422.44199313,N,10854.00017962,E,1,12,1.0,373.918,M,-35.766,M,,*53
$GNVTG,104.91,T,108.57,M,0.01,N,0.03,K,A*39
$GNHDT,63.898,T*17
$GNGGA,094246.20,3422.44199325,N,10854.00017976,E,1,12,1.0,373.918,M,-35.766,M,,*50
$GNVTG,175.26,T,178.92,M,0.01,N,0.01,K,A*3F
$GNHDT,63.923,T*16
$GNGGA,094246.30,3422.44199337,N,10854.00017990,E,1,12,1.0,373.917,M,-35.766,M,,*55
$GNVTG,228.73,T,232.40,M,0.01,N,0.02,K,A*35
$GNHDT,63.932,T*16
$GNGGA,094246.40,3422.44199350,N,10854.00018004,E,1,12,1.0,373.917,M,-35.766,M,,*58
$GNVTG,212.22,T,215.88,M,0.01,N,0.02,K,A*39
$GNHDT,64.038,T*12
$GNGGA,094246.50,3422.44199362,N,10854.00018019,E,1,12,1.0,373.916,M,-35.766,M,,*55
$GNVTG,15.26,T,18.93,M,0.01,N,0.02,K,A*3D
$GNHDT,63.950,T*12
$GNGGA,094246.60,3422.44199374,N,10854.00018033,E,1,12,1.0,373.916,M,-35.766,M,,*59
$GNVTG,40.16,T,43.83,M,0.01,N,0.02,K,A*31
$GNHDT,63.858,T*1B
$GNGGA,094246.70,3422.44199386,N,10854.00018046,E,1,12,1.0,373.916,M,-35.766,M,,*57
$GNVTG,346.55,T,350.21,M,0.02,N,0.04,K,A*3F
$GNHDT,63.771,T*1F
$GNGGA,094246.80,3422.44199399,N,10854.00018060,E,1,12,1.0,373.915,M,-35.766,M,,*51
$GNVTG,342.10,T,345.77,M,0.02,N,0.04,K,A*3D
$GNHDT,63.897,T*18
$GNGGA,094246.90,3422.44199412,N,10854.00018074,E,1,12,1.0,373.915,M,-35.766,M,,*51
$GNVTG,339.62,T,343.28,M,0.02,N,0.03,K,A*3F
$GNHDT,63.985,T*1A
$GNGGA,094247.00,3422.44199424,N,10854.00018088,E,1,12,1.0,373.914,M,-35.766,M,,*5E
$GNVTG,347.99,T,351.66,M,0.01,N,0.03,K,A*38
$GNHDT,63.982,T*1D
$GNGGA,094247.10,3422.44199437,N,10854.00018101,E,1,12,1.0,373.914,M,-35.766,M,,*5D
$GNVTG,291.30,T,294.96,M,0.01,N,0.01,K,A*34
$GNHDT,64.033,T*19
$GNGGA,094247.20,3422.44199450,N,10854.00018116,E,1,12,1.0,373.913,M,-35.766,M,,*5E
$GNVTG,240.45,T,244.11,M,0.01,N,0.01,K,A*38
$GNHDT,63.886,T*18
$GNGGA,094247.30,3422.44199462,N,10854.00018130,E,1,12,1.0,373.913,M,-35.766,M,,*5A
$GNVTG,257.73,T,261.39,M,0.04,N,0.07,K,A*35
$GNHDT,63.772,T*1C
$GNGGA,094247.40,3422.44199475,N,10854.00018145,E,1,12,1.0,373.912,M,-35.766,M,,*58
$GNVTG,252.91,T,256.57,M,0.04,N,0.07,K,A*30
$GNHDT,63.933,T*17
$GNGGA,094247.50,3422.44199487,N,10854.00018159,E,1,12,1.0,373.912,M,-35.766,M,,*59
$GNVTG,256.17,T,259.84,M,0.05,N,0.09,K,A*34
$GNHDT,63.943,T*10
$GNGGA,094247.60,3422.44199498,N,10854.00018173,E,1,12,1.0,373.911,M,-35.766,M,,*5F
$GNVTG,259.41,T,263.07,M,0.04,N,0.07,K,A*35
$GNHDT,63.830,T*15
$GNGGA,094247.70,3422.44199509,N,10854.00018187,E,1,12,1.0,373.911,M,-35.766,M,,*5C
$GNVTG,256.89,T,260.55,M,0.03,N,0.05,K,A*3F
$GNHDT,63.928,T*1D
$GNGGA,094247.80,3422.44199520,N,10854.00018202,E,1,12,1.0,373.910,M,-35.766,M,,*57
$GNVTG,266.32,T,269.99,M,0.01,N,0.03,K,A*31
$GNHDT,64.031,T*1B
$GNGGA,094247.90,3422.44199532,N,10854.00018216,E,1,12,1.0,373.910,M,-35.766,M,,*50
$GNVTG,266.91,T,270.58,M,0.02,N,0.03,K,A*3E
$GNHDT,63.909,T*1E
$GNGGA,094248.00,3422.44199542,N,10854.00018231,E,1,12,1.0,373.909,M,-35.766,M,,*5C
$GNVTG,275.26,T,278.92,M,0.01,N,0.02,K,A*3C
$GNHDT,63.844,T*16
$GNGGA,094248.10,3422.44199552,N,10854.00018246,E,1,12,1.0,373.909,M,-35.766,M,,*5C
$GNVTG,214.86,T,218.52,M,0.01,N,0.02,K,A*3B
$GNHDT,63.948,T*1B
$GNGGA,094248.20,3422.44199562,N,10854.00018261,E,1,12,1.0,373.908,M,-35.766,M,,*58
$GNVTG,186.61,T,190.28,M,0.01,N,0.01,K,A*37
$GNHDT,63.940,T*13
$GNGGA,094248.30,3422.44199572,N,10854.00018276,E,1,12,1.0,373.908,M,-35.766,M,,*5E
$GNVTG,177.81,T,181.48,M,0.03,N,0.06,K,A*34
$GNHDT,63.972,T*12
$GNGGA,094248.40,3422.44199581,N,10854.00018291,E,1,12,1.0,373.907,M,-35.766,M,,*53
$GNVTG,170.81,T,174.47,M,0.03,N,0.05,K,A*35
$GNHDT,64.057,T*1B
$GNGGA,094248.50,3422.44199590,N,10854.00018306,E,1,12,1.0,373.907,M,-35.766,M,,*5D
$GNVTG,154.25,T,157.91,M,0.01,N,0.02,K,A*32
$GNHDT,64.073,T*1D
$GNGGA,094248.60,3422.44199600,N,10854.00018322,E,1,12,1.0,373.906,M,-35.766,M,,*53
$GNVTG,146.81,T,150.47,M,0.01,N,0.01,K,A*30
$GNHDT,63.963,T*12
$GNGGA,094248.70,3422.44199609,N,10854.00018338,E,1,12,1.0,373.906,M,-35.766,M,,*50
$GNVTG,206.06,T,209.72,M,0.01,N,0.02,K,A*32
$GNHDT,64.012,T*1A
$GNGGA,094248.80,3422.44199617,N,10854.00018354,E,1,12,1.0,373.906,M,-35.766,M,,*5A
$GNVTG,200.33,T,203.99,M,0.01,N,0.01,K,A*3E
$GNHDT,63.986,T*19
$GNGGA,094248.90,3422.44199626,N,10854.00018369,E,1,12,1.0,373.905,M,-35.766,M,,*54
$GNVTG,244.81,T,248.48,M,0.01,N,0.02,K,A*37
$GNHDT,63.984,T*1B
$GNGGA,094249.00,3422.44199635,N,10854.00018386,E,1,12,1.0,373.905,M,-35.766,M,,*5F
$GNVTG,286.82,T,290.48,M,0.00,N,0.01,K,A*3D
$GNHDT,63.888,T*16
$GNGGA,094249.10,3422.44199643,N,10854.00018402,E,1,12,1.0,373.904,M,-35.766,M,,*55
$GNVTG,267.58,T,271.24,M,0.02,N,0.03,K,A*30
$GNHDT,63.822,T*16
$GNGGA,094249.20,3422.44199651,N,10854.00018418,E,1,12,1.0,373.904,M,-35.766,M,,*5E
$GNVTG,289.37,T,293.04,M,0.02,N,0.03,K,A*37
$GNHDT,63.883,T*1D
$GNGGA,094249.30,3422.44199659,N,10854.00018434,E,1,12,1.0,373.903,M,-35.766,M,,*5E
$GNVTG,280.50,T,284.17,M,0.02,N,0.03,K,A*3B
$GNHDT,63.878,T*19
$GNGGA,094249.40,3422.44199667,N,10854.00018450,E,1,12,1.0,373.903,M,-35.766,M,,*56
$GNVTG,278.03,T,281.69,M,0.02,N,0.04,K,A*31
$GNHDT,63.927,T*12
$GNGGA,094249.50,3422.44199675,N,10854.00018466,E,1,12,1.0,373.902,M,-35.766,M,,*50
$GNVTG,276.81,T,280.48,M,0.01,N,0.02,K,A*32
$GNHDT,63.845,T*17
$GNGGA,094249.60,3422.44199682,N,10854.00018481,E,1,12,1.0,373.902,M,-35.766,M,,*52
$GNVTG,229.89,T,233.55,M,0.01,N,0.02,K,A*34
$GNHDT,63.961,T*10
$GNGGA,094249.70,3422.44199689,N,10854.00018497,E,1,12,1.0,373.901,M,-35.766,M,,*5C
$GNVTG,266.88,T,270.55,M,0.01,N,0.02,K,A*39
$GNHDT,63.928,T*1D
$GNGGA,094249.80,3422.44199696,N,10854.00018513,E,1,12,1.0,373.901,M,-35.766,M,,*50
$GNVTG,256.66,T,260.32,M,0.00,N,0.01,K,A*38
$GNHDT,63.775,T*1B
$GNGGA,094249.90,3422.44199704,N,10854.00018530,E,1,12,1.0,373.900,M,-35.766,M,,*5B
$GNVTG,167.07,T,170.73,M,0.01,N,0.01,K,A*38
$GNHDT,63.905,T*12
$GNGGA,094250.00,3422.44199711,N,10854.00018546,E,1,12,1.0,373.900,M,-35.766,M,,*5F
$GNVTG,111.03,T,114.69,M,0.00,N,0.01,K,A*35
$GNHDT,63.905,T*12
$GNGGA,094250.10,3422.44199718,N,10854.00018563,E,1,12,1.0,373.900,M,-35.766,M,,*50
$GNVTG,76.86,T,80.53,M,0.02,N,0.05,K,A*3B
$GNHDT,63.882,T*1C
$GNGGA,094250.20,3422.44199725,N,10854.00018581,E,1,12,1.0,373.899,M,-35.766,M,,*50
$GNVTG,77.41,T,81.07,M,0.02,N,0.04,K,A*30
$GNHDT,63.919,T*1F
$GNGGA,094250.30,3422.44199732,N,10854.00018598,E,1,12,1.0,373.899,M,-35.766,M,,*5F
$GNVTG,60.28,T,63.94,M,0.02,N,0.05,K,A*3E
$GNHDT,63.843,T*11
$GNGGA,094250.40,3422.44199739,N,10854.00018616,E,1,12,1.0,373.898,M,-35.766,M,,*57
$GNVTG,58.82,T,62.48,M,0.03,N,0.05,K,A*34
$GNHDT,63.769,T*16
$GNGGA,094250.50,3422.44199746,N,10854.00018634,E,1,12,1.0,373.898,M,-35.766,M,,*5E
$GNVTG,92.10,T,95.76,M,0.04,N,0.07,K,A*39
$GNHDT,64.017,T*1F
$GNGGA,094250.60,3422.44199753,N,10854.00018653,E,1,12,1.0,373.897,M,-35.766,M,,*57
$GNVTG,104.65,T,108.31,M,0.04,N,0.07,K,A*33
$GNHDT,63.933,T*17
$GNGGA,094250.70,3422.44199760,N,10854.00018672,E,1,12,1.0,373.897,M,-35.766,M,,*55
$GNVTG,63.86,T,67.52,M,0.03,N,0.06,K,A*35
$GNHDT,63.812,T*15
$GNGGA,094250.80,3422.44199766,N,10854.00018691,E,1,12,1.0,373.896,M,-35.766,M,,*50
$GNVTG,72.06,T,75.73,M,0.03,N,0.05,K,A*3E
$GNHDT,63.960,T*11
$GNGGA,094250.90,3422.44199773,N,10854.00018709,E,1,12,1.0,373.896,M,-35.766,M,,*55
$GNVTG,351.58,T,355.24,M,0.01,N,0.03,K,A*30
$GNHDT,63.791,T*11
$GNGGA,094251.00,3422.44199779,N,10854.00018728,E,1,12,1.0,373.896,M,-35.766,M,,*54
$GNVTG,351.22,T,354.88,M,0.03,N,0.05,K,A*3E
$GNHDT,63.888,T*16
$GNGGA,094251.10,3422.44199785,N,10854.00018746,E,1,12,1.0,373.895,M,-35.766,M,,*5D
$GNVTG,299.95,T,303.62,M,0.02,N,0.03,K,A*36
$GNHDT,63.963,T*12
$GNGGA,094251.20,3422.44199791,N,10854.00018764,E,1,12,1.0,373.895,M,-35.766,M,,*5B
$GNVTG,300.24,T,303.90,M,0.02,N,0.03,K,A*30
$GNHDT,63.938,T*1C
$GNGGA,094251.30,3422.44199796,N,10854.00018782,E,1,12,1.0,373.894,M,-35.766,M,,*54
$GNVTG,275.56,T,279.23,M,0.01,N,0.02,K,A*30
$GNHDT,64.032,T*18
$GNGGA,094251.40,3422.44199802,N,10854.00018800,E,1,12,1.0,373.894,M,-35.766,M,,*54
$GNVTG,229.50,T,233.16,M,0.01,N,0.03,K,A*36
$GNHDT,64.035,T*1F
$GNGGA,094251.50,3422.44199807,N,10854.00018818,E,1,12,1.0,373.893,M,-35.766,M,,*5E
$GNVTG,281.58,T,285.25,M,0.02,N,0.03,K,A*32
$GNHDT,63.893,T*1C
$GNGGA,094251.60,3422.44199812,N,10854.00018836,E,1,12,1.0,373.893,M,-35.766,M,,*55
$GNVTG,281.92,T,285.59,M,0.02,N,0.03,K,A*3F
$GNHDT,63.974,T*14
$GNGGA,094251.70,3422.44199818,N,10854.00018854,E,1,12,1.0,373.893,M,-35.766,M,,*5A
$GNVTG,272.23,T,275.89,M,0.01,N,0.03,K,A*38
$GNHDT,63.818,T*1F
$GNGGA,094251.80,3422.44199823,N,10854.00018872,E,1,12,1.0,373.892,M,-35.766,M,,*58
$GNVTG,286.63,T,290.29,M,0.01,N,0.02,K,A*37
$GNHDT,63.961,T*10
$GNGGA,094251.90,3422.44199828,N,10854.00018890,E,1,12,1.0,373.892,M,-35.766,M,,*5E
$GNVTG,321.04,T,324.71,M,0.02,N,0.04,K,A*3C
$GNHDT,63.885,T*1B
$GNGGA,094252.00,3422.44199834,N,10854.00018908,E,1,12,1.0,373.891,M,-35.766,M,,*5A
$GNVTG,346.61,T,350.28,M,0.02,N,0.03,K,A*36
$GNHDT,64.044,T*19
$GNGGA,094252.10,3422.44199839,N,10854.00018926,E,1,12,1.0,373.891,M,-35.766,M,,*5A
$GNVTG,299.56,T,303.23,M,0.01,N,0.02,K,A*3E
$GNHDT,63.791,T*11
$GNGGA,094252.20,3422.44199844,N,10854.00018945,E,1,12,1.0,373.891,M,-35.766,M,,*56
$GNVTG,302.56,T,306.22,M,0.01,N,0.02,K,A*39
$GNHDT,64.040,T*1D
$GNGGA,094252.30,3422.44199849,N,10854.00018963,E,1,12,1.0,373.890,M,-35.766,M,,*5F
$GNVTG,297.41,T,301.07,M,0.02,N,0.04,K,A*37
$GNHDT,63.912,T*14
$GNGGA,094252.40,3422.44199854,N,10854.00018981,E,1,12,1.0,373.890,M,-35.766,M,,*58
$GNVTG,297.35,T,301.01,M,0.02,N,0.03,K,A*35
$GNHDT,63.855,T*16
$GNGGA,094252.50,3422.44199858,N,10854.00018999,E,1,12,1.0,373.889,M,-35.766,M,,*54
$GNVTG,262.89,T,266.56,M,0.01,N,0.02,K,A*38
$GNHDT,63.939,T*1D
$GNGGA,094252.60,3422.44199863,N,10854.00019017,E,1,12,1.0,373.889,M,-35.766,M,,*51
$GNVTG,204.08,T,207.74,M,0.01,N,0.01,K,A*35
$GNHDT,63.948,T*1B
$GNGGA,094252.70,3422.44199867,N,10854.00019035,E,1,12,1.0,373.889,M,-35.766,M,,*54
$GNVTG,193.24,T,196.91,M,0.01,N,0.02,K,A*35
$GNHDT,63.870,T*11
$GNGGA,094252.80,3422.44199872,N,10854.00019054,E,1,12,1.0,373.888,M,-35.766,M,,*59
$GNVTG,169.36,T,173.02,M,0.01,N,0.02,K,A*32
$GNHDT,63.894,T*1B
$GNGGA,094252.90,3422.44199876,N,10854.00019072,E,1,12,1.0,373.888,M,-35.766,M,,*58
$GNVTG,147.75,T,151.42,M,0.02,N,0.03,K,A*3F
$GNHDT,63.888,T*16
$GNGGA,094253.00,3422.44199880,N,10854.00019091,E,1,12,1.0,373.888,M,-35.766,M,,*54
$GNVTG,109.50,T,113.17,M,0.01,N,0.03,K,A*37
$GNHDT,63.961,T*10
$GNGGA,094253.10,3422.44199884,N,10854.00019109,E,1,12,1.0,373.887,M,-35.766,M,,*5E
$GNVTG,32.77,T,36.43,M,0.02,N,0.04,K,A*38
$GNHDT,63.834,T*11
$GNGGA,094253.20,3422.44199888,N,10854.00019127,E,1,12,1.0,373.887,M,-35.766,M,,*5D
$GNVTG,33.86,T,37.52,M,0.02,N,0.04,K,A*36
$GNHDT,63.944,T*17
$GNGGA,094253.30,3422.44199892,N,10854.00019145,E,1,12,1.0,373.887,M,-35.766,M,,*53
$GNVTG,36.19,T,39.86,M,0.02,N,0.03,K,A*35
$GNHDT,64.007,T*1E
$GNGGA,094253.40,3422.44199896,N,10854.00019163,E,1,12,1.0,373.886,M,-35.766,M,,*55
$GNVTG,23.44,T,27.11,M,0.02,N,0.03,K,A*38
$GNHDT,63.886,T*18
$GNGGA,094253.50,3422.44199900,N,10854.00019182,E,1,12,1.0,373.886,M,-35.766,M,,*55
$GNVTG,86.36,T,90.02,M,0.02,N,0.03,K,A*3C
$GNHDT,64.039,T*13
$GNGGA,094253.60,3422.44199904,N,10854.00019201,E,1,12,1.0,373.886,M,-35.766,M,,*5A
$GNVTG,82.79,T,86.46,M,0.02,N,0.04,K,A*33
$GNHDT,63.904,T*13
$GNGGA,094253.70,3422.44199908,N,10854.00019220,E,1,12,1.0,373.885,M,-35.766,M,,*57
$GNVTG,61.36,T,65.03,M,0.03,N,0.05,K,A*39
$GNHDT,63.935,T*11
$GNGGA,094253.80,3422.44199912,N,10854.00019239,E,1,12,1.0,373.885,M,-35.766,M,,*5B
$GNVTG,70.48,T,74.15,M,0.03,N,0.05,K,A*37
$GNHDT,63.893,T*1C
$GNGGA,094253.90,3422.44199916,N,10854.00019258,E,1,12,1.0,373.885,M,-35.766,M,,*59
$GNVTG,85.74,T,89.40,M,0.03,N,0.05,K,A*30
$GNHDT,63.888,T*16
$GNGGA,094254.00,3422.44199920,N,10854.00019278,E,1,12,1.0,373.884,M,-35.766,M,,*51
$GNVTG,89.47,T,93.14,M,0.02,N,0.03,K,A*31
$GNHDT,63.968,T*19
$GNGGA,094254.10,3422.44199924,N,10854.00019298,E,1,12,1.0,373.884,M,-35.766,M,,*5A
$GNVTG,50.64,T,54.31,M,0.01,N,0.01,K,A*39
$GNHDT,63.901,T*16
$GNGGA,094254.20,3422.44199928,N,10854.00019318,E,1,12,1.0,373.884,M,-35.766,M,,*5C
$GNVTG,41.23,T,44.89,M,0.01,N,0.02,K,A*3B
$GNHDT,63.953,T*11
$GNGGA,094254.30,3422.44199932,N,10854.00019338,E,1,12,1.0,373.883,M,-35.766,M,,*53
$GNVTG,140.17,T,143.83,M,0.02,N,0.03,K,A*32
$GNHDT,63.978,T*18
$GNGGA,094254.40,3422.44199935,N,10854.00019358,E,1,12,1.0,373.883,M,-35.766,M,,*55
$GNVTG,131.78,T,135.44,M,0.01,N,0.03,K,A*34
$GNHDT,63.937,T*13
$GNGGA,094254.50,3422.44199938,N,10854.00019378,E,1,12,1.0,373.883,M,-35.766,M,,*5B
$GNVTG,129.18,T,132.84,M,0.01,N,0.02,K,A*31
$GNHDT,63.927,T*12
$GNGGA,094254.60,3422.44199941,N,10854.00019397,E,1,12,1.0,373.882,M,-35.766,M,,*56
$GNVTG,109.26,T,112.92,M,0.01,N,0.01,K,A*38
$GNHDT,63.895,T*1A
$GNGGA,094254.70,3422.44199944,N,10854.00019416,E,1,12,1.0,373.882,M,-35.766,M,,*5C
$GNVTG,243.13,T,246.80,M,0.01,N,0.01,K,A*32
$GNHDT,63.938,T*1C
$GNGGA,094254.80,3422.44199947,N,10854.00019435,E,1,12,1.0,373.882,M,-35.766,M,,*51
$GNVTG,286.09,T,289.76,M,0.00,N,0.01,K,A*3B
$GNHDT,63.964,T*15
$GNGGA,094254.90,3422.44199950,N,10854.00019455,E,1,12,1.0,373.881,M,-35.766,M,,*53
$GNVTG,273.87,T,277.53,M,0.01,N,0.02,K,A*33
$GNHDT,63.764,T*1B
$GNGGA,094255.00,3422.44199954,N,10854.00019475,E,1,12,1.0,373.881,M,-35.766,M,,*5D
$GNVTG,277.97,T,281.63,M,0.00,N,0.01,K,A*3E
$GNHDT,63.922,T*17
$GNGGA,094255.10,3422.44199957,N,10854.00019495,E,1,12,1.0,373.881,M,-35.766,M,,*51
$GNVTG,350.01,T,353.68,M,0.01,N,0.02,K,A*32
$GNHDT,63.765,T*1A
$GNGGA,094255.20,3422.44199960,N,10854.00019515,E,1,12,1.0,373.880,M,-35.766,M,,*5E
$GNVTG,322.61,T,326.28,M,0.01,N,0.01,K,A*34
$GNHDT,63.947,T*14
$GNGGA,094255.30,3422.44199963,N,10854.00019535,E,1,12,1.0,373.880,M,-35.766,M,,*5E
$GNVTG,342.46,T,346.12,M,0.01,N,0.03,K,A*3A
$GNHDT,63.801,T*17
$GNGGA,094255.40,3422.44199965,N,10854.00019554,E,1,12,1.0,373.880,M,-35.766,M,,*58
$GNVTG,334.64,T,338.30,M,0.02,N,0.03,K,A*31
$GNHDT,63.908,T*1F
$GNGGA,094255.50,3422.44199968,N,10854.00019574,E,1,12,1.0,373.880,M,-35.766,M,,*56
$GNVTG,288.03,T,291.69,M,0.01,N,0.02,K,A*3A
$GNHDT,63.885,T*1B
$GNGGA,094255.60,3422.44199969,N,10854.00019589,E,1,12,1.1,373.879,M,-35.766,M,,*51
$GNVTG,340.25,T,343.92,M,0.01,N,0.01,K,A*32
$GNHDT,63.937,T*13
$GNGGA,094255.70,3422.44199970,N,10854.00019605,E,1,12,1.1,373.879,M,-35.766,M,,*5F
$GNVTG,4.74,T,8.41,M,0.02,N,0.03,K,A*36
$GNHDT,63.896,T*19
$GNGGA,094255.80,3422.44199971,N,10854.00019620,E,1,12,1.1,373.879,M,-35.766,M,,*56
$GNVTG,37.95,T,41.62,M,0.02,N,0.03,K,A*35
$GNHDT,63.691,T*10
$GNGGA,094255.90,3422.44199971,N,10854.00019636,E,1,12,1.1,373.879,M,-35.766,M,,*50
$GNVTG,72.42,T,76.09,M,0.03,N,0.06,K,A*33
$GNHDT,63.935,T*11
$GNGGA,094256.00,3422.44199972,N,10854.00019651,E,1,12,1.1,373.878,M,-35.766,M,,*59
$GNVTG,76.11,T,79.77,M,0.04,N,0.07,K,A*31
$GNHDT,63.737,T*1D
$GNGGA,094256.10,3422.44199973,N,10854.00019667,E,1,12,1.1,373.878,M,-35.766,M,,*5C
$GNVTG,88.19,T,91.85,M,0.03,N,0.06,K,A*35
$GNHDT,63.991,T*1F
$GNGGA,094256.20,3422.44199973,N,10854.00019683,E,1,12,1.1,373.878,M,-35.766,M,,*55
$GNVTG,91.15,T,94.81,M,0.03,N,0.05,K,A*33
$GNHDT,63.880,T*1E
$GNGGA,094256.30,3422.44199974,N,10854.00019699,E,1,12,1.1,373.878,M,-35.766,M,,*58
$GNVTG,90.53,T,94.19,M,0.03,N,0.06,K,A*32
$GNHDT,63.967,T*16
$GNGGA,094256.40,3422.44199974,N,10854.00019715,E,1,12,1.1,373.877,M,-35.766,M,,*55
$GNVTG,83.47,T,87.14,M,0.03,N,0.06,K,A*3A
$GNHDT,64.047,T*1A
$GNGGA,094256.50,3422.44199975,N,10854.00019731,E,1,12,1.1,373.877,M,-35.766,M,,*53
$GNVTG,72.33,T,75.99,M,0.02,N,0.04,K,A*3C
$GNHDT,63.991,T*1F
$GNGGA,094256.60,3422.44199975,N,10854.00019748,E,1,12,1.1,373.877,M,-35.766,M,,*5E
$GNVTG,79.93,T,83.60,M,0.02,N,0.04,K,A*32
$GNHDT,64.073,T*1D
$GNGGA,094256.70,3422.44199976,N,10854.00019764,E,1,12,1.1,373.877,M,-35.766,M,,*52
$GNVTG,65.05,T,68.72,M,0.03,N,0.06,K,A*35
$GNHDT,64.080,T*11
$GNGGA,094256.80,3422.44199976,N,10854.00019781,E,1,12,1.1,373.877,M,-35.766,M,,*56
$GNVTG,58.53,T,62.19,M,0.03,N,0.05,K,A*3C
$GNHDT,64.070,T*1E
$GNGGA,094256.90,3422.44199977,N,10854.00019797,E,1,12,1.1,373.876,M,-35.766,M,,*50
$GNVTG,33.25,T,36.92,M,0.02,N,0.04,K,A*32
$GNHDT,64.026,T*1D
$GNGGA,094257.00,3422.44199977,N,10854.00019814,E,1,12,1.1,373.876,M,-35.766,M,,*5C
$GNVTG,25.13,T,28.80,M,0.03,N,0.05,K,A*3C
$GNHDT,63.924,T*11
$GNGGA,094257.10,3422.44199978,N,10854.00019830,E,1,12,1.1,373.876,M,-35.766,M,,*54
$GNVTG,35.33,T,38.99,M,0.02,N,0.04,K,A*36
$GNHDT,63.891,T*1E
$GNGGA,094257.20,3422.44199978,N,10854.00019847,E,1,12,1.1,373.876,M,-35.766,M,,*57
$GNVTG,35.14,T,38.81,M,0.02,N,0.04,K,A*3A
$GNHDT,63.998,T*16
$GNGGA,094257.30,3422.44199979,N,10854.00019864,E,1,12,1.1,373.875,M,-35.766,M,,*55
$GNVTG,45.23,T,48.89,M,0.04,N,0.07,K,A*33
$GNHDT,63.820,T*14
$GNGGA,094257.40,3422.44199980,N,10854.00019881,E,1,12,1.1,373.875,M,-35.766,M,,*5F
$GNVTG,38.73,T,42.40,M,0.03,N,0.05,K,A*36
$GNHDT,63.810,T*17
$GNGGA,094257.50,3422.44199980,N,10854.00019898,E,1,12,1.1,373.875,M,-35.766,M,,*56
$GNVTG,69.07,T,72.74,M,0.04,N,0.07,K,A*30
$GNHDT,63.901,T*16
$GNGGA,094257.60,3422.44199981,N,10854.00019915,E,1,12,1.1,373.875,M,-35.766,M,,*50
$GNVTG,72.48,T,76.15,M,0.03,N,0.06,K,A*34
$GNHDT,63.975,T*15
$GNGGA,094257.70,3422.44199981,N,10854.00019932,E,1,12,1.1,373.875,M,-35.766,M,,*54
$GNVTG,73.67,T,77.34,M,0.04,N,0.08,K,A*33
$GNHDT,64.047,T*1A
$GNGGA,094257.80,3422.44199982,N,10854.00019950,E,1,12,1.1,373.874,M,-35.766,M,,*5D
$GNVTG,72.22,T,75.88,M,0.04,N,0.07,K,A*39
$GNHDT,63.854,T*17
$GNGGA,094257.90,3422.44199983,N,10854.00019967,E,1,12,1.1,373.874,M,-35.766,M,,*59
$GNVTG,51.43,T,55.10,M,0.04,N,0.07,K,A*3C
$GNHDT,63.885,T*1B
$GNGGA,094258.00,3422.44199983,N,10854.00019985,E,1,12,1.1,373.874,M,-35.766,M,,*53
$GNVTG,50.36,T,54.02,M,0.04,N,0.07,K,A*3D
$GNHDT,63.822,T*16
$GNGGA,094258.10,3422.44199984,N,10854.00020003,E,1,12,1.1,373.874,M,-35.766,M,,*58
$GNVTG,37.48,T,41.15,M,0.04,N,0.08,K,A*38
$GNHDT,64.091,T*11
$GNGGA,094258.20,3422.44199985,N,10854.00020020,E,1,12,1.1,373.874,M,-35.766,M,,*5B
$GNVTG,36.96,T,40.62,M,0.04,N,0.08,K,A*3B
$GNHDT,63.907,T*10
$GNGGA,094258.30,3422.44199986,N,10854.00020038,E,1,12,1.1,373.873,M,-35.766,M,,*57
$GNVTG,67.77,T,71.44,M,0.03,N,0.05,K,A*3C
$GNHDT,64.038,T*12
$GNGGA,094258.40,3422.44199986,N,10854.00020056,E,1,12,1.1,373.873,M,-35.766,M,,*58
$GNVTG,81.39,T,85.06,M,0.02,N,0.05,K,A*32
$GNHDT,63.996,T*18
$GNGGA,094258.50,3422.44199987,N,10854.00020074,E,1,12,1.1,373.873,M,-35.766,M,,*58
$GNVTG,81.88,T,85.54,M,0.02,N,0.04,K,A*3E
$GNHDT,64.033,T*19
$GNGGA,094258.60,3422.44199987,N,10854.00020092,E,1,12,1.1,373.873,M,-35.766,M,,*53
$GNVTG,105.56,T,109.22,M,0.02,N,0.04,K,A*34
$GNHDT,64.037,T*1D
$GNGGA,094258.70,3422.44199988,N,10854.00020109,E,1,12,1.1,373.873,M,-35.766,M,,*5E
$GNVTG,127.55,T,131.21,M,0.02,N,0.03,K,A*38
$GNHDT,63.991,T*1F
$GNGGA,094258.80,3422.44199988,N,10854.00020127,E,1,12,1.1,373.872,M,-35.766,M,,*5C
$GNVTG,98.00,T,101.67,M,0.01,N,0.02,K,A*0E
$GNHDT,64.057,T*1B
$GNGGA,094258.90,3422.44199989,N,10854.00020145,E,1,12,1.1,373.872,M,-35.766,M,,*58
$GNVTG,121.10,T,124.77,M,0.01,N,0.02,K,A*3A
$GNHDT,63.927,T*12
$GNGGA,094259.00,3422.44199989,N,10854.00020163,E,1,12,1.1,373.872,M,-35.766,M,,*54
$GNVTG,78.07,T,81.73,M,0.01,N,0.02,K,A*3B
$GNHDT,63.964,T*15
$GNGGA,094259.10,3422.44199990,N,10854.00020180,E,1,12,1.1,373.872,M,-35.766,M,,*50
$GNVTG,60.39,T,64.05,M,0.02,N,0.04,K,A*30
$GNHDT,63.847,T*15
$GNGGA,094259.20,3422.44199990,N,10854.00020198,E,1,12,1.1,373.872,M,-35.766,M,,*5A
$GNVTG,53.23,T,56.90,M,0.02,N,0.04,K,A*36
$GNHDT,63.968,T*19
$GNGGA,094259.30,3422.44199990,N,10854.00020216,E,1,12,1.1,373.871,M,-35.766,M,,*5D
$GNVTG,54.23,T,57.90,M,0.02,N,0.04,K,A*30
$GNHDT,63.912,T*14
$GNGGA,094259.40,3422.44199991,N,10854.00020234,E,1,12,1.1,373.871,M,-35.766,M,,*5B
$GNVTG,81.93,T,85.60,M,0.02,N,0.04,K,A*33
$GNHDT,63.991,T*1F
$GNGGA,094259.50,3422.44199991,N,10854.00020252,E,1,12,1.1,373.871,M,-35.766,M,,*5A
$GNVTG,85.46,T,89.12,M,0.02,N,0.05,K,A*37
$GNHDT,63.925,T*10
$GNGGA,094259.60,3422.44199991,N,10854.00020270,E,1,12,1.1,373.871,M,-35.766,M,,*59
$GNVTG,76.69,T,80.35,M,0.03,N,0.06,K,A*38
$GNHDT,63.907,T*10
$GNGGA,094259.70,3422.44199992,N,10854.00020288,E,1,12,1.1,373.871,M,-35.766,M,,*5C
$GNVTG,91.45,T,95.12,M,0.02,N,0.04,K,A*3D
$GNHDT,64.098,T*18
$GNGGA,094259.80,3422.44199992,N,10854.00020306,E,1,12,1.1,373.870,M,-35.766,M,,*55
$GNVTG,85.52,T,89.19,M,0.02,N,0.03,K,A*3F
$GNHDT,64.092,T*12
$GNGGA,094259.90,3422.44199992,N,10854.00020324,E,1,12,1.1,373.870,M,-35.766,M,,*54
$GNVTG,54.62,T,58.29,M,0.03,N,0.05,K,A*38
$GNHDT,63.973,T*13
$GNGGA,094300.00,3422.44199993,N,10854.00020342,E,1,12,1.1,373.870,M,-35.766,M,,*51
$GNVTG,61.69,T,65.36,M,0.03,N,0.05,K,A*35
$GNHDT,63.924,T*11
$GNGGA,094300.10,3422.44199993,N,10854.00020360,E,1,12,1.1,373.870,M,-35.766,M,,*50
$GNVTG,87.51,T,91.17,M,0.02,N,0.03,K,A*39
$GNHDT,63.965,T*14
$GNGGA,094300.20,3422.44199993,N,10854.00020378,E,1,12,1.1,373.870,M,-35.766,M,,*5A
$GNVTG,65.73,T,69.40,M,0.02,N,0.03,K,A*30
$GNHDT,64.057,T*1B
$GNGGA,094300.30,3422.44199993,N,10854.00020397,E,1,12,1.1,373.869,M,-35.766,M,,*52
$GNVTG,51.97,T,55.63,M,0.02,N,0.03,K,A*33
$GNHDT,64.025,T*1E
$GNGGA,094300.40,3422.44199994,N,10854.00020415,E,1,12,1.1,373.869,M,-35.766,M,,*5F
$GNVTG,61.95,T,65.61,M,0.01,N,0.03,K,A*30
$GNHDT,64.072,T*1C
$GNGGA,094300.50,3422.44199994,N,10854.00020433,E,1,12,1.1,373.869,M,-35.766,M,,*5A
$GNVTG,170.87,T,174.53,M,0.01,N,0.02,K,A*33
$GNHDT,64.164,T*1A
$GNGGA,094300.60,3422.44199994,N,10854.00020451,E,1,12,1.1,373.869,M,-35.766,M,,*5D
$GNVTG,128.02,T,131.69,M,0.01,N,0.02,K,A*3B
$GNHDT,63.954,T*16
$GNGGA,094300.70,3422.44199994,N,10854.00020469,E,1,12,1.1,373.869,M,-35.766,M,,*57
$GNVTG,144.36,T,148.03,M,0.01,N,0.02,K,A*34
$GNHDT,64.031,T*1B
$GNGGA,094300.80,3422.44199994,N,10854.00020487,E,1,12,1.1,373.868,M,-35.766,M,,*59
$GNVTG,121.29,T,124.95,M,0.00,N,0.01,K,A*3E
$GNHDT,63.927,T*12
$GNGGA,094300.90,3422.44199994,N,10854.00020505,E,1,12,1.1,373.868,M,-35.766,M,,*53
$GNVTG,187.71,T,191.38,M,0.01,N,0.02,K,A*34
$GNHDT,64.029,T*12
$GNGGA,094301.00,3422.44199994,N,10854.00020523,E,1,12,1.1,373.868,M,-35.766,M,,*5F
$GNVTG,197.41,T,201.08,M,0.01,N,0.01,K,A*3C
$GNHDT,63.957,T*15
$GNGGA,094301.10,3422.44199994,N,10854.00020541,E,1,12,1.1,373.868,M,-35.766,M,,*5A
$GNVTG,136.70,T,140.37,M,0.00,N,0.00,K,A*3F
